ACCELEROMETER X ,ACCELEROMETER Y,ACCELEROMETER Z,GRAVITY X,GRAVITY Y,GRAVITY Z,LINEAR ACCELERATION X,LINEAR ACCELERATION Y,LINEAR ACCELERATION Z,GYROSCOPE X,GYROSCOPE Y,GYROSCOPE Z,LIGHT,MAGNETIC FIELD X,MAGNETIC FIELD Y,MAGNETIC FIELD Z,ORIENTATION Z,ORIENTATION X,ORIENTATION Y,PROXIMITY,ATMOSPHERIC PRESSURE,SOUND LEVEL,LOCATION Latitude : ,LOCATION Longitude : ,LOCATION Altitude,LOCATION Altitude-google,LOCATION Altitude-atmospheric pressure,LOCATION Speed,LOCATION Accuracy,LOCATION ORIENTATION,Satellites in range,GPS NMEA,Time since start in ms ,YYYY-MO-DD HH-MI-SS_SSS
-1.632,3.794,8.9934,-1.2763,3.3351,9.1334,-0.2118,0.2691,-0.2859,-0.2866,-0.0701,0.1556,0.0,-19.66,-13.4,-45.8,86.24,-20.34,8.09,5.0,1015.17,62.064,50.38621,-4.148402,92.0,NaN,,0.0,12.0,,8 / 18,"$GPGSV,3,3,09,21,00,000,*43::$GPGGA,195150,5023.177458,N,00408.905147,W,2,06,1.0,45.0,M,47.0,M,,*61::$GPVTG,,T,,M,0.0,N,0.0,K,D*26::$GLGSV,3,3,09,84,11,246,*50::$GPRMC,195150,A,5023.177458,N,00408.905147,W,0.0,,300819,4.8,W,D*38::$GPGSA,A,3,05,07,09,13,28,30,,,,,,,1.2,1.0,0.7*37",15,2019-08-30 20:51:50:874
-2.4471,3.5092,9.3123,-2.5171,2.9504,9.0072,0.8372,0.1718,0.0808,0.2283,0.5987,-0.1912,0.0,-14.88,-4.95,-48.86,73.44,-17.51,15.61,5.0,1015.15,32.241,50.38615,-4.148387,92.0,NaN,,1.19,11.0,16.9,8 / 18,"$GPGSV,3,3,09,21,00,000,*43::$GPGGA,195151,5023.172744,N,00408.904123,W,2,06,1.0,45.0,M,47.0,M,,*68::$GPVTG,,T,,M,0.0,N,0.0,K,D*26::$GLGSV,3,3,09,84,11,246,*50::$GPRMC,195151,A,5023.172744,N,00408.904123,W,0.0,,300819,4.8,W,D*31::$GPGSA,A,3,05,07,09,13,28,30,,,,,,,1.2,1.0,0.7*37",1015,2019-08-30 20:51:51:874
-2.0417,2.8881,10.2101,-2.2668,3.3008,8.9519,-0.3057,0.2892,-1.0231,-0.6705,0.0981,0.0935,0.0,-12.24,-8.55,-48.73,71.0,-22.13,14.91,5.0,1015.16,35.971,50.386124,-4.148371,91.0,NaN,,1.66,10.0,86.1,8 / 18,"$GPGSV,3,3,09,21,00,000,*43::$GPGGA,195152,5023.169228,N,00408.903236,W,2,06,1.0,45.0,M,47.0,M,,*6E::$GPVTG,16.9,T,16.9,M,0.6,N,1.2,K,D*23::$GLGSV,3,1,09,78,00,000,36,70,16,299,29,86,09,355,30,77,10,023,25*6D::$GPRMC,195152,A,5023.169228,N,00408.903236,W,0.6,16.9,300819,4.8,W,D*21::$GPGSA,A,3,05,07,09,13,28,30,,,,,,,1.2,1.0,0.7*37",2015,2019-08-30 20:51:52:874
-2.1099,2.8385,7.8382,-2.7308,2.5355,9.0711,0.6595,0.3638,-1.023,0.0298,-0.2157,-0.0087,0.0,-10.93,-3.03,-50.01,72.79,-14.24,17.8,5.0,1015.16,37.039,50.386116,-4.148364,92.0,NaN,,2.59,10.0,75.7,8 / 18,"$GPGSV,3,3,09,21,00,000,*43::$GPGGA,195153,5023.167357,N,00408.902265,W,2,06,1.0,44.0,M,47.0,M,,*6E::$GPVTG,86.1,T,86.1,M,0.9,N,1.7,K,D*29::$GLGSV,3,3,09,84,11,246,*50::$GPRMC,195153,A,5023.167357,N,00408.902265,W,0.9,86.1,300819,4.8,W,D*2E::$GPGSA,A,3,05,07,09,13,28,30,,,,,,,1.2,1.0,0.7*37",3015,2019-08-30 20:51:53:874
-5.458,2.3954,10.5338,-3.2881,2.493,8.8963,-2.0569,-0.5614,2.321,-0.4538,0.171,0.3419,0.0,-7.72,-3.25,-50.11,71.49,-14.73,20.28,5.0,1015.17,33.156,50.3861,-4.148351,91.0,NaN,,2.99,10.0,75.5,8 / 18,"$GPGSV,3,3,09,21,00,000,*43::$GPGGA,195154,5023.166971,N,00408.901851,W,2,06,0.8,45.0,M,47.0,M,,*60::$GPVTG,75.7,T,75.7,M,1.4,N,2.6,K,D*27::$GLGSV,3,3,09,84,11,246,*50::$GPRMC,195154,A,5023.166971,N,00408.901851,W,1.4,75.7,300819,4.8,W,D*2E::$GPGSA,A,3,05,07,09,13,28,30,,,,,,,1.1,0.8,0.7*3D",4015,2019-08-30 20:51:54:874
-10.6011,-6.8783,3.173,-7.6724,-4.5907,4.0286,-3.0675,-2.4182,-0.1591,-0.8652,-1.4995,0.4336,0.0,26.27,5.8,-37.08,106.8,23.84,74.42,0.0,1015.21,55.782,50.386097,-4.148345,91.0,NaN,,3.13,10.0,75.3,8 / 18,"$GPGSV,3,3,09,21,00,000,*43::$GPGGA,195156,5023.165678,N,00408.900711,W,2,06,0.8,44.0,M,47.0,M,,*6C::$GPVTG,75.3,T,75.3,M,1.7,N,3.1,K,D*22::$GLGSV,3,3,09,84,11,246,*50::$GPRMC,195156,A,5023.165678,N,00408.900711,W,1.7,75.3,300819,4.8,W,D*24::$GPGSA,A,3,05,07,09,13,28,30,,,,,,,1.1,0.8,0.7*3D",5015,2019-08-30 20:51:55:874
0.2646,-8.2514,3.8839,-2.3309,-9.5208,0.3029,4.54,2.1589,3.1936,3.6417,2.5297,-4.381,0.0,33.07,29.67,-8.23,103.41,51.72,114.33,0.0,1015.23,55.028,50.386086,-4.148343,91.0,NaN,,2.66,10.0,75.5,8 / 18,"$GPGSV,3,3,09,21,00,000,*43::$GPGGA,195156,5023.165678,N,00408.900711,W,2,06,0.8,44.0,M,47.0,M,,*6C::$GPVTG,75.3,T,75.3,M,1.7,N,3.1,K,D*22::$GLGSV,3,3,09,84,11,246,*50::$GPRMC,195156,A,5023.165678,N,00408.900711,W,1.7,75.3,300819,4.8,W,D*24::$GPGSA,A,3,05,07,09,13,28,30,,,,,,,1.1,0.8,0.7*3D",6015,2019-08-30 20:51:56:874
-3.0273,-10.8943,1.2901,-0.0066,-9.519,-2.3576,9.1322,-0.543,3.9518,1.0704,0.5195,0.1275,0.0,12.87,44.8,1.04,52.95,76.09,179.84,0.0,1015.15,66.343,50.38608,-4.148328,91.0,NaN,,4.21,9.0,75.5,8 / 18,"$GPGSV,3,3,09,21,00,000,*43::$GPGGA,195157,5023.165027,N,00408.900590,W,2,06,1.0,44.0,M,47.0,M,,*63::$GPVTG,75.5,T,75.5,M,1.4,N,2.7,K,D*26::$GLGSV,3,3,09,84,11,246,*50::$GPRMC,195157,A,5023.165027,N,00408.900590,W,1.4,75.5,300819,4.8,W,D*27::$GPGSA,A,3,05,07,09,13,28,30,,,,,,,1.3,1.0,0.8*39",7015,2019-08-30 20:51:57:874
-4.1756,-19.6586,-15.2884,-0.4703,-9.4341,-2.6357,1.1528,5.7767,3.2854,2.0989,-0.4615,-0.1579,0.0,12.48,44.07,-1.6,45.68,74.16,169.88,0.0,1015.34,55.828,50.38608,-4.148317,91.0,NaN,,2.66,9.0,75.5,8 / 18,"$GPGSV,3,3,09,21,00,000,*43::$GPGGA,195158,5023.164938,N,00408.899654,W,2,06,1.5,44.0,M,47.0,M,,*65::$GPVTG,75.5,T,75.5,M,2.3,N,4.2,K,D*21::$GLGSV,3,3,09,84,11,246,*50::$GPRMC,195158,A,5023.164938,N,00408.899654,W,2.3,75.5,300819,4.8,W,D*20::$GPGSA,A,3,05,07,09,13,28,30,,,,,,,1.7,1.5,0.9*39",8016,2019-08-30 20:51:58:875
1.8734,-7.6132,1.3847,-0.6386,-9.1882,-3.3675,0.8385,0.8911,4.5159,-1.126,1.8343,0.3718,0.0,12.68,42.43,-14.95,46.83,80.68,159.89,0.0,1015.29,57.459,50.38608,-4.148302,91.0,NaN,,3.02,10.0,75.6,8 / 18,"$GPGSV,3,3,09,21,00,000,*43::$GPGGA,195159,5023.164820,N,00408.899004,W,2,06,1.3,44.0,M,47.0,M,,*69::$GPVTG,75.5,T,75.5,M,1.4,N,2.7,K,D*26::$GLGSV,3,3,09,84,11,246,*50::$GPRMC,195159,A,5023.164820,N,00408.899004,W,1.4,75.5,300819,4.8,W,D*2E::$GPGSA,A,3,05,07,09,13,28,30,,,,,,,1.5,1.3,0.8*3C",9016,2019-08-30 20:51:59:875
-0.3738,-15.0672,-3.1278,-0.8472,-9.7699,-0.0468,1.5159,-3.6658,-3.4855,-2.7491,-1.5607,0.3207,0.0,17.58,41.25,-14.22,243.28,77.34,10.45,0.0,1015.23,50.1,50.38607,-4.148292,90.0,NaN,,2.84,10.0,75.6,8 / 18,"$GPGSV,3,3,09,21,00,000,*43::$GPGGA,195200,5023.164778,N,00408.898129,W,2,06,1.3,44.0,M,47.0,M,,*6B::$GPVTG,75.6,T,75.6,M,1.6,N,3.0,K,D*22::$GLGSV,3,3,09,84,11,246,*50::$GPRMC,195200,A,5023.164778,N,00408.898129,W,1.6,75.6,300819,4.8,W,D*2D::$GPGSA,A,3,05,07,09,13,28,30,,,,,,,1.5,1.3,0.8*3C",10015,2019-08-30 20:52:00:874
-0.6425,-9.2323,-2.5754,-0.3483,-9.5672,2.1257,-2.5939,-0.0434,-2.1732,0.7917,-0.2729,-0.161,0.0,17.54,42.82,-7.34,217.59,83.34,40.43,0.0,1015.29,60.183,50.386078,-4.148275,91.0,NaN,,3.53,9.0,75.6,8 / 18,"$GPGSV,3,2,09,28,07,143,23,30,69,129,30,06,00,000,,15,01,270,*78::$GPGGA,195201,5023.164328,N,00408.897498,W,2,06,1.1,43.0,M,47.0,M,,*6E::$GPVTG,75.6,T,75.6,M,1.5,N,2.8,K,D*28::$GLGSV,3,3,09,84,11,246,*50::$GPRMC,195201,A,5023.164328,N,00408.897498,W,1.5,75.6,300819,4.8,W,D*2E::$GPGSA,A,3,05,07,09,13,28,30,,,,,,,1.4,1.1,0.8*3F",11016,2019-08-30 20:52:01:875
-0.4649,-7.531,-0.6403,-0.6708,-9.7831,0.105,-0.7182,0.6875,0.4862,1.3094,-0.124,0.1849,0.0,18.73,43.27,1.06,194.14,86.03,81.1,0.0,1015.3,66.728,50.386066,-4.148256,91.0,NaN,,5.15,9.0,82.4,8 / 18,"$GPGSV,3,3,09,21,00,000,*43::$GPGGA,195202,5023.164537,N,00408.896505,W,2,06,1.3,44.0,M,47.0,M,,*64::$GPVTG,75.6,T,75.6,M,1.9,N,3.5,K,D*28::$GLGSV,3,3,09,84,11,246,*50::$GPRMC,195202,A,5023.164537,N,00408.896505,W,1.9,75.6,300819,4.8,W,D*2D::$GPGSA,A,3,05,07,09,13,28,30,,,,,,,1.5,1.3,0.8*3C",12015,2019-08-30 20:52:02:874
-0.7154,-5.1496,3.5109,-1.1829,-9.488,-2.1791,0.5556,3.124,6.3239,0.447,-0.2063,0.03,0.0,20.29,42.69,5.77,103.24,75.36,151.51,0.0,1015.18,56.549,50.386055,-4.148243,90.0,NaN,,3.85,9.0,75.8,8 / 18,"$GPGSV,3,3,09,21,00,000,*43::$GPGGA,195203,5023.164128,N,00408.895337,W,2,06,1.1,44.0,M,47.0,M,,*69::$GPVTG,82.4,T,82.4,M,2.8,N,5.1,K,D*28::$GLGSV,3,3,09,84,11,246,*50::$GPRMC,195203,A,5023.164128,N,00408.895337,W,2.8,82.4,300819,4.8,W,D*2A::$GPGSA,A,3,05,07,09,13,28,30,,,,,,,1.4,1.1,0.8*3F",13015,2019-08-30 20:52:03:874
-4.6745,-19.0398,-13.0187,-0.4256,-9.4557,-2.565,3.2923,4.2644,-2.8528,-0.2046,1.093,-0.4318,0.0,16.73,43.76,1.23,53.52,71.14,168.73,0.0,1015.4,62.725,50.386055,-4.148232,89.0,NaN,,3.71,9.0,75.8,8 / 18,"$GPGSV,3,3,09,21,00,000,*43::$GPGGA,195204,5023.163451,N,00408.894578,W,2,06,0.8,43.0,M,47.0,M,,*61::$GPVTG,75.8,T,75.8,M,2.1,N,3.9,K,D*2F::$GLGSV,3,3,09,84,11,246,*50::$GPRMC,195204,A,5023.163451,N,00408.894578,W,2.1,75.8,300819,4.8,W,D*20::$GPGSA,A,3,05,07,09,13,28,30,,,,,,,1.1,0.8,0.7*3D",14015,2019-08-30 20:52:04:874
0.8962,-4.8009,1.846,-1.1085,-9.1973,-3.2173,1.8862,3.3389,5.4744,-1.3387,1.722,0.4972,0.0,15.88,42.07,-7.35,47.61,69.7,160.99,0.0,1015.39,51.883,50.386055,-4.148216,89.0,NaN,,3.71,9.0,75.8,8 / 18,"$GPGSV,3,3,09,21,00,000,*43::$GPGGA,195205,5023.163466,N,00408.893891,W,2,06,0.9,42.0,M,47.0,M,,*69::$GPVTG,75.8,T,75.8,M,2.0,N,3.7,K,D*20::$GLGSV,3,3,09,84,11,246,*50::$GPRMC,195205,A,5023.163466,N,00408.893891,W,2.0,75.8,300819,4.8,W,D*29::$GPGSA,A,3,05,07,09,13,28,30,,,,,,,1.1,0.9,0.7*3C",15016,2019-08-30 20:52:05:875
-4.1275,-14.6047,-1.562,-0.3184,-9.7576,-0.9263,5.3331,-1.2451,3.2957,-1.9214,-0.0039,0.2199,0.0,14.11,41.45,-16.8,50.33,84.27,161.03,0.0,1015.25,52.974,50.386063,-4.148209,89.0,NaN,,2.88,9.0,75.8,8 / 18,"$GPGSV,3,3,09,21,00,000,*43::$GPGGA,195206,5023.163506,N,00408.892960,W,2,06,0.9,42.0,M,47.0,M,,*63::$GPVTG,75.8,T,75.8,M,2.0,N,3.7,K,D*20::$GLGSV,3,3,09,84,11,246,*50::$GPRMC,195206,A,5023.163506,N,00408.892960,W,2.0,75.8,300819,4.8,W,D*23::$GPGSA,A,3,05,07,09,13,28,30,,,,,,,1.1,0.9,0.7*3C",16015,2019-08-30 20:52:06:874
-4.0214,-16.9281,-0.9082,0.1082,-9.5627,2.171,-3.0391,-0.3577,-2.0897,-1.4712,0.2993,0.4945,0.0,15.88,42.04,-11.29,271.18,74.69,0.57,0.0,1015.32,66.189,50.386066,-4.148186,90.0,NaN,,4.0,9.0,71.4,8 / 18,"$GPGSV,3,3,09,21,00,000,*43::$GPGGA,195207,5023.163709,N,00408.892521,W,2,06,1.0,42.0,M,47.0,M,,*6E::$GPVTG,75.8,T,75.8,M,1.6,N,2.9,K,D*2A::$GLGSV,3,3,09,84,11,246,*50::$GPRMC,195207,A,5023.163709,N,00408.892521,W,1.6,75.8,300819,4.8,W,D*23::$GPGSA,A,3,05,07,09,13,28,30,,,,,,,1.3,1.0,0.8*39",17016,2019-08-30 20:52:07:875
-2.2885,-9.1278,0.1726,-0.6513,-9.6234,1.7708,0.1762,1.531,-1.4848,0.924,-0.8771,-0.5125,0.0,19.48,41.76,-6.79,252.7,78.91,20.19,0.0,1015.36,59.294,50.386066,-4.14817,90.0,NaN,,4.25,9.0,78.2,8 / 18,"$GPGSV,3,3,09,21,00,000,*43::$GPGGA,195208,5023.164084,N,00408.891130,W,2,06,1.1,43.0,M,47.0,M,,*63::$GPVTG,71.4,T,71.4,M,2.2,N,4.0,K,D*22::$GLGSV,3,3,09,84,11,246,*50::$GPRMC,195208,A,5023.164084,N,00408.891130,W,2.2,71.4,300819,4.8,W,D*21::$GPGSA,A,3,05,07,09,13,28,30,,,,,,,1.4,1.1,0.8*3F",18015,2019-08-30 20:52:08:874
0.2751,-8.2803,1.7298,-0.7142,-9.7203,-1.0841,0.268,0.9783,5.0089,0.7175,-0.094,-0.2625,0.0,19.29,43.02,3.22,116.71,82.39,146.62,0.0,1015.26,66.096,50.386063,-4.148153,90.0,NaN,,4.46,9.0,77.9,8 / 18,"$GPGSV,3,3,09,21,00,000,*43::$GPGGA,195209,5023.164008,N,00408.890228,W,2,06,1.3,43.0,M,47.0,M,,*6F::$GPVTG,78.2,T,78.2,M,2.3,N,4.2,K,D*21::$GLGSV,3,3,09,84,11,246,*50::$GPRMC,195209,A,5023.164008,N,00408.890228,W,2.3,78.2,300819,4.8,W,D*21::$GPGSA,A,3,05,07,09,13,28,30,,,,,,,1.5,1.3,0.8*3C",19015,2019-08-30 20:52:09:874
-2.5438,-5.5991,5.7862,-0.7676,-9.4255,-2.5964,5.3371,2.2611,3.351,-0.5569,0.4314,1.1255,0.0,17.57,43.74,1.63,77.92,77.06,165.68,0.0,1015.48,64.496,50.38607,-4.148147,90.0,NaN,,4.1,9.0,77.2,8 / 18,"$GPGSV,3,3,09,21,00,000,*43::$GPGGA,195210,5023.163883,N,00408.889208,W,2,06,1.5,43.0,M,47.0,M,,*67::$GPVTG,77.9,T,77.9,M,2.4,N,4.5,K,D*21::$GLGSV,3,3,09,84,11,246,*50::$GPRMC,195210,A,5023.163883,N,00408.889208,W,2.4,77.9,300819,4.8,W,D*2C::$GPGSA,A,3,05,07,09,13,28,30,,,,,,,1.7,1.5,0.9*39",20015,2019-08-30 20:52:10:874
0.986,-18.9562,-12.4743,-0.1616,-9.1669,-3.4803,1.4909,4.9533,3.757,1.3633,0.3518,-0.2468,0.0,15.19,42.68,-7.04,35.64,66.64,173.54,0.0,1015.38,57.917,50.386078,-4.148141,90.0,NaN,,3.71,9.0,62.6,8 / 18,"$GPGSV,3,3,09,21,00,000,*43::$GPGGA,195211,5023.164216,N,00408.888795,W,2,06,1.5,43.0,M,47.0,M,,*67::$GPVTG,77.2,T,77.2,M,2.2,N,4.1,K,D*23::$GLGSV,3,3,09,84,11,246,*50::$GPRMC,195211,A,5023.164216,N,00408.888795,W,2.2,77.2,300819,4.8,W,D*21::$GPGSA,A,3,05,07,09,13,28,30,,,,,,,1.7,1.5,0.9*39",21015,2019-08-30 20:52:11:874
-4.7739,-11.4162,-1.6021,-1.0024,-9.1194,-3.4645,-1.7969,-0.5096,2.5138,-0.8853,1.8291,0.4868,0.0,14.72,42.34,-14.34,48.35,78.88,161.82,0.0,1015.41,52.616,50.38609,-4.148144,90.0,NaN,,3.46,9.0,60.1,8 / 18,"$GPGSV,3,3,09,21,00,000,*43::$GPGGA,195212,5023.164558,N,00408.888452,W,2,06,1.1,43.0,M,47.0,M,,*65::$GPVTG,62.6,T,62.6,M,2.0,N,3.7,K,D*20::$GLGSV,3,3,09,84,11,246,*50::$GPRMC,195212,A,5023.164558,N,00408.888452,W,2.0,62.6,300819,4.8,W,D*25::$GPGSA,A,3,05,07,09,13,28,30,,,,,,,1.4,1.1,0.8*3F",22014,2019-08-30 20:52:12:873
-2.058,-12.9037,-4.3884,-0.2013,-9.6091,1.9481,-1.4529,0.4255,-3.2244,0.1586,-0.4246,-0.3562,0.0,15.66,41.16,-15.92,237.71,78.48,5.9,0.0,1015.33,47.028,50.386093,-4.14815,90.0,NaN,,3.53,9.0,69.6,8 / 18,"$GPGSV,3,3,09,21,00,000,*43::$GPGGA,195213,5023.165176,N,00408.888614,W,2,06,1.1,43.0,M,47.0,M,,*6D::$GPVTG,60.1,T,60.1,M,1.9,N,3.5,K,D*28::$GLGSV,3,3,09,84,11,246,*50::$GPRMC,195213,A,5023.165176,N,00408.888614,W,1.9,60.1,300819,4.8,W,D*22::$GPGSA,A,3,05,07,09,13,28,30,,,,,,,1.4,1.1,0.8*3F",23016,2019-08-30 20:52:13:875
-2.7606,-8.8438,-0.1145,-0.6557,-9.6509,1.6127,-2.3149,0.327,-1.5493,0.9673,-0.2251,-0.2406,0.0,19.38,41.95,-7.04,248.26,79.77,22.13,0.0,1015.39,61.674,50.386097,-4.148126,90.0,NaN,,3.46,9.0,66.0,8 / 18,"$GPGSV,3,3,09,21,00,000,*43::$GPGGA,195214,5023.165562,N,00408.888978,W,2,06,1.1,43.0,M,47.0,M,,*6E::$GPVTG,69.6,T,69.6,M,1.9,N,3.5,K,D*28::$GLGSV,3,3,09,84,11,246,*50::$GPRMC,195214,A,5023.165562,N,00408.888978,W,1.9,69.6,300819,4.8,W,D*2F::$GPGSA,A,3,05,07,09,13,28,30,,,,,,,1.4,1.1,0.8*3F",24014,2019-08-30 20:52:14:873
-1.1488,-8.649,-0.2885,-0.846,-9.768,-0.2038,1.0696,0.8435,0.8345,1.3394,-1.2594,0.0368,0.0,18.84,43.33,2.07,70.8,71.64,168.39,0.0,1015.4,66.848,50.386097,-4.148126,90.0,NaN,,3.46,9.0,66.0,8 / 18,"$GPGSV,3,3,09,21,00,000,*43::$GPGGA,195215,5023.165669,N,00408.887548,W,2,06,1.2,43.0,M,47.0,M,,*64::$GPVTG,66.0,T,66.0,M,1.9,N,3.5,K,D*28::$GLGSV,3,3,09,84,11,246,*50::$GPRMC,195215,A,5023.165669,N,00408.887548,W,1.9,66.0,300819,4.8,W,D*2F::$GPGSA,A,3,05,07,09,13,28,30,,,,,,,1.4,1.2,0.9*3D",25015,2019-08-30 20:52:15:874
1.3896,-10.5732,2.2202,-0.4197,-9.5964,-1.9755,6.1177,0.928,4.3884,0.4889,0.4211,-0.2325,0.0,18.39,43.62,2.51,76.01,75.72,167.39,0.0,1015.32,60.205,50.386097,-4.148102,90.0,NaN,,3.6,9.0,67.9,8 / 18,"$GPGSV,3,3,09,21,00,000,*43::$GPGGA,195216,5023.165469,N,00408.886493,W,2,06,2.0,43.0,M,47.0,M,,*62::$GPVTG,63.4,T,63.4,M,2.0,N,3.8,K,D*2F::$GLGSV,3,3,09,84,11,246,*50::$GPRMC,195216,A,5023.165469,N,00408.886493,W,2.0,63.4,300819,4.8,W,D*23::$GPGSA,A,3,05,07,09,13,28,30,,,,,,,2.2,2.0,0.9*39",26015,2019-08-30 20:52:16:874
1.3009,-11.4818,-11.1512,-0.3543,-9.2795,-3.152,1.4063,4.9193,2.9556,1.894,0.3781,0.2569,0.0,16.9,43.18,-1.56,50.74,71.13,173.59,0.0,1015.44,58.948,50.3861,-4.148087,91.0,NaN,,3.92,9.0,74.3,8 / 18,"$GPGSV,3,3,09,21,00,000,*43::$GPGGA,195217,5023.165825,N,00408.886100,W,2,06,1.5,43.0,M,47.0,M,,*6E::$GPVTG,67.9,T,67.9,M,1.9,N,3.6,K,D*2B::$GLGSV,3,3,09,84,11,246,*50::$GPRMC,195217,A,5023.165825,N,00408.886100,W,1.9,67.9,300819,4.8,W,D*2A::$GPGSA,A,3,05,07,09,13,28,30,,,,,,,1.7,1.5,0.9*39",27016,2019-08-30 20:52:17:875
1.6941,-6.4804,1.4884,-0.5868,-9.2643,-3.162,1.2458,1.9357,5.3212,-1.3131,1.422,0.3497,0.0,14.6,41.62,-13.08,41.68,76.8,164.23,0.0,1015.49,53.243,50.3861,-4.148074,91.0,NaN,,3.78,9.0,66.0,8 / 18,"$GPGSV,3,3,09,21,00,000,*43::$GPGGA,195218,5023.165948,N,00408.885238,W,2,06,1.5,44.0,M,47.0,M,,*67::$GPVTG,74.3,T,74.3,M,2.1,N,3.9,K,D*2F::$GLGSV,3,3,09,84,11,246,*50::$GPRMC,195218,A,5023.165948,N,00408.885238,W,2.1,74.3,300819,4.8,W,D*27::$GPGSA,A,3,05,07,09,13,28,30,,,,,,,1.7,1.5,0.9*39",28016,2019-08-30 20:52:18:875
0.485,-13.4329,-2.0291,-0.1843,-9.6869,-1.5167,3.6137,-3.9543,2.2013,-1.8654,-0.8797,0.4928,0.0,15.34,41.3,-14.85,40.86,81.04,173.07,0.0,1015.41,54.789,50.386105,-4.148052,91.0,NaN,,3.92,9.0,77.6,8 / 18,"$GPGSV,3,3,09,21,00,000,*43::$GPGGA,195219,5023.166067,N,00408.884442,W,2,06,1.5,44.0,M,47.0,M,,*6B::$GPVTG,66.0,T,66.0,M,2.0,N,3.8,K,D*2F::$GLGSV,3,3,09,84,11,246,*50::$GPRMC,195219,A,5023.166067,N,00408.884442,W,2.0,66.0,300819,4.8,W,D*2A::$GPGSA,A,3,05,07,09,13,28,30,,,,,,,1.7,1.5,0.9*39",29015,2019-08-30 20:52:19:874
-0.6193,-9.4654,-1.7142,0.2606,-9.6212,1.88,-1.2945,-0.1113,-3.8697,-0.0754,-1.1379,-0.3494,0.0,17.52,41.25,-11.7,230.93,83.16,15.71,0.0,1015.44,64.217,50.386105,-4.148033,91.0,NaN,,3.96,9.0,74.4,8 / 18,"$GPGSV,3,3,09,21,00,000,*43::$GPGGA,195220,5023.166321,N,00408.883117,W,2,06,1.5,44.0,M,47.0,M,,*62::$GPVTG,77.6,T,77.6,M,2.1,N,3.9,K,D*2F::$GLGSV,3,3,09,84,11,246,*50::$GPRMC,195220,A,5023.166321,N,00408.883117,W,2.1,77.6,300819,4.8,W,D*24::$GPGSA,A,3,05,07,09,13,28,30,,,,,,,1.7,1.5,0.9*39",30017,2019-08-30 20:52:20:876
-1.3587,-9.1111,-0.1076,-0.8231,-9.7629,-0.422,-0.6995,1.28,1.8844,1.1007,-0.3286,-0.0612,0.0,20.03,42.56,-0.68,77.77,76.64,159.84,0.0,1015.44,59.267,50.386124,-4.148027,90.0,NaN,,3.96,9.0,67.3,8 / 18,"$GPGSV,3,3,09,21,00,000,*43::$GPGGA,195221,5023.166312,N,00408.881990,W,2,06,0.9,44.0,M,47.0,M,,*6B::$GPVTG,74.4,T,74.4,M,2.1,N,4.0,K,D*21::$GLGSV,3,3,09,84,11,246,*50::$GPRMC,195221,A,5023.166312,N,00408.881990,W,2.1,74.4,300819,4.8,W,D*21::$GPGSA,A,3,05,07,09,13,28,30,,,,,,,1.2,0.9,0.8*30",31015,2019-08-30 20:52:21:874
-0.6415,-9.9951,-0.0731,-0.5293,-9.4267,-2.651,5.544,2.6213,4.7372,1.8541,-3.3938,0.2091,0.0,20.45,42.43,4.49,63.15,67.98,176.37,0.0,1015.36,57.069,50.386124,-4.148027,90.0,NaN,,3.96,9.0,67.3,8 / 18,"$GPGSV,3,3,09,21,00,000,*43::$GPGGA,195222,5023.167426,N,00408.881632,W,2,06,0.9,43.0,M,47.0,M,,*69::$GPVTG,67.3,T,67.3,M,2.1,N,4.0,K,D*21::$GLGSV,3,3,09,84,11,246,*50::$GPRMC,195222,A,5023.167426,N,00408.881632,W,2.1,67.3,300819,4.8,W,D*21::$GPGSA,A,3,05,07,09,13,28,30,,,,,,,1.1,0.9,0.7*3C",32015,2019-08-30 20:52:22:874
2.2469,-9.333,-9.5954,-0.8462,-9.3684,-2.7725,2.5001,4.2579,2.1907,1.0854,0.0642,-0.7337,0.0,17.42,42.77,-3.97,47.35,67.11,164.43,0.0,1015.54,58.433,50.386135,-4.147989,91.0,NaN,,3.96,9.0,81.6,8 / 18,"$GPGSV,3,3,09,21,00,000,*43::$GPGGA,195223,5023.167581,N,00408.880614,W,2,06,0.9,44.0,M,47.0,M,,*66::$GPVTG,80.7,T,80.7,M,2.5,N,4.7,K,D*22::$GLGSV,3,3,09,84,11,246,*50::$GPRMC,195223,A,5023.167581,N,00408.880614,W,2.5,80.7,300819,4.8,W,D*20::$GPGSA,A,3,05,07,09,13,28,30,,,,,,,1.2,0.9,0.7*3F",33015,2019-08-30 20:52:23:874
1.13,-7.474,1.9151,-0.7546,-9.2045,-3.2983,0.3594,0.5533,5.0547,-1.5609,1.9648,0.4862,0.0,15.18,41.83,-10.92,74.26,84.55,142.2,0.0,1015.52,58.183,50.386135,-4.147971,92.0,NaN,,3.56,9.0,71.3,8 / 18,"$GPGSV,3,3,09,21,00,000,*43::$GPGGA,195224,5023.168024,N,00408.879331,W,2,06,0.9,44.0,M,47.0,M,,*60::$GPVTG,81.6,T,81.6,M,2.1,N,4.0,K,D*21::$GLGSV,3,3,09,84,11,246,*50::$GPRMC,195224,A,5023.168024,N,00408.879331,W,2.1,81.6,300819,4.8,W,D*22::$GPGSA,A,3,05,07,09,13,28,30,,,,,,,1.1,0.9,0.7*3C",34016,2019-08-30 20:52:24:875
2.7208,-13.2679,3.9355,-0.1031,-9.8061,-0.0102,-2.5033,-3.3877,-5.448,-3.1531,-0.3533,0.4347,0.0,14.28,41.42,-16.61,122.89,89.39,95.64,0.0,1015.49,53.322,50.38614,-4.147956,92.0,NaN,,3.46,9.0,70.8,8 / 18,"$GPGSV,3,3,09,21,00,000,*43::$GPGGA,195225,5023.168126,N,00408.878271,W,2,06,0.9,45.0,M,47.0,M,,*67::$GPVTG,71.3,T,71.3,M,1.9,N,3.6,K,D*2B::$GLGSV,3,3,09,84,11,246,*50::$GPRMC,195225,A,5023.168126,N,00408.878271,W,1.9,71.3,300819,4.8,W,D*25::$GPGSA,A,3,05,07,09,13,28,30,,,,,,,1.2,0.9,0.7*3F",35015,2019-08-30 20:52:25:874
-1.5015,-9.2682,-0.4497,-0.3667,-9.6474,1.7215,-0.8329,0.7591,-2.642,-0.0172,-0.5731,-0.3811,0.0,18.6,41.85,-10.28,223.58,81.53,30.5,0.0,1015.52,55.162,50.38614,-4.147944,92.0,NaN,,3.96,9.0,68.4,8 / 18,"$GPGSV,3,3,09,21,00,000,*43::$GPGGA,195226,5023.168339,N,00408.877352,W,2,06,1.4,45.0,M,47.0,M,,*6B::$GPVTG,70.8,T,70.8,M,1.9,N,3.5,K,D*28::$GLGSV,3,3,09,84,11,246,*50::$GPRMC,195226,A,5023.168339,N,00408.877352,W,1.9,70.8,300819,4.8,W,D*2F::$GPGSA,A,3,05,07,09,13,28,30,,,,,,,1.6,1.4,0.8*38",36015,2019-08-30 20:52:26:874
-2.5538,-8.8234,0.3316,-0.7513,-9.752,0.7109,-1.6135,1.7238,-0.5034,0.9726,-0.3011,-0.3463,0.0,17.7,42.82,-5.43,216.33,83.95,46.58,0.0,1015.49,65.172,50.38614,-4.147927,92.0,NaN,,4.07,9.0,62.5,8 / 18,"$GPGSV,3,3,09,21,00,000,*43::$GPGGA,195227,5023.168367,N,00408.876613,W,2,06,0.9,45.0,M,47.0,M,,*6C::$GPVTG,68.4,T,68.4,M,2.1,N,4.0,K,D*21::$GLGSV,3,3,09,84,11,246,*50::$GPRMC,195227,A,5023.168367,N,00408.876613,W,2.1,68.4,300819,4.8,W,D*2A::$GPGSA,A,3,05,07,09,13,28,30,,,,,,,1.2,0.9,0.7*3F",37016,2019-08-30 20:52:27:875
-2.3475,-9.1353,-0.2902,-0.6747,-9.4227,-2.6319,4.7547,2.7318,5.7752,1.0081,-1.1187,-0.3046,0.0,19.57,42.65,5.97,63.17,66.32,173.37,0.0,1015.37,61.097,50.386143,-4.1479,93.0,NaN,,4.61,9.0,74.0,8 / 18,"$GPGSV,3,3,09,21,00,000,*43::$GPGGA,195228,5023.168459,N,00408.875595,W,2,06,1.0,45.0,M,47.0,M,,*6F::$GPVTG,62.5,T,62.5,M,2.2,N,4.1,K,D*23::$GLGSV,3,3,09,84,11,246,*50::$GPRMC,195228,A,5023.168459,N,00408.875595,W,2.2,62.5,300819,4.8,W,D*29::$GPGSA,A,3,05,07,09,13,28,30,,,,,,,1.3,1.0,0.8*39",38016,2019-08-30 20:52:28:875
4.9087,-9.8441,2.9691,-0.7247,-9.1023,-3.5767,-2.9947,-7.4421,-10.6308,-0.9642,-0.4187,0.366,0.0,17.48,43.55,1.03,53.17,68.15,168.55,0.0,1015.41,57.615,50.386143,-4.1479,93.0,NaN,,4.61,9.0,74.0,8 / 18,"$GPGSV,3,3,09,21,00,000,*43::$GPGGA,195229,5023.168777,N,00408.873971,W,2,06,1.3,46.0,M,47.0,M,,*61::$GPVTG,74.0,T,74.0,M,2.5,N,4.6,K,D*23::$GLGSV,3,3,09,84,11,246,*50::$GPRMC,195229,A,5023.168777,N,00408.873971,W,2.5,74.0,300819,4.8,W,D*22::$GPGSA,A,3,05,07,09,13,28,30,,,,,,,1.5,1.3,0.8*3C",39016,2019-08-30 20:52:29:875
1.013,-5.1634,1.508,-0.9126,-8.5976,-4.628,1.4786,4.4737,6.1619,-0.0037,1.5076,0.4536,0.0,15.1,42.55,-7.44,33.63,61.25,168.84,0.0,1015.53,62.294,50.386143,-4.14791,90.0,NaN,,3.2,9.0,61.7,8 / 18,"$GPGSV,3,3,09,21,00,000,*43::$GPGGA,195230,5023.168932,N,00408.874017,W,2,06,1.1,44.0,M,47.0,M,,*68::$GPVTG,78.9,T,78.9,M,1.9,N,3.6,K,D*2B::$GLGSV,3,3,09,84,11,246,*50::$GPRMC,195230,A,5023.168932,N,00408.874017,W,1.9,78.9,300819,4.8,W,D*21::$GPGSA,A,3,05,07,09,13,28,30,,,,,,,1.4,1.1,0.8*3F",40015,2019-08-30 20:52:30:874
0.936,-12.6069,3.0003,-0.9242,-9.4723,-2.3648,4.6071,-3.0984,4.0747,-1.8998,0.4176,0.5862,0.0,13.89,40.93,-16.09,43.2,74.99,158.65,0.0,1015.52,53.534,50.386143,-4.147915,90.0,NaN,,3.13,9.0,72.4,8 / 18,"$GPGSV,3,3,09,21,00,000,*43::$GPGGA,195231,5023.168769,N,00408.874586,W,2,06,1.0,43.0,M,47.0,M,,*62::$GPVTG,61.7,T,61.7,M,1.7,N,3.2,K,D*21::$GLGSV,3,3,09,84,11,246,*50::$GPRMC,195231,A,5023.168769,N,00408.874586,W,1.7,61.7,300819,4.8,W,D*25::$GPGSA,A,3,05,07,09,13,28,30,,,,,,,1.3,1.0,0.8*39",41017,2019-08-30 20:52:31:876
-2.0322,-9.2004,0.5154,-0.5224,-9.6572,1.6236,-2.0657,0.5518,-1.6839,0.7888,-0.2168,-0.1508,0.0,18.54,41.34,-10.84,226.54,80.97,26.12,0.0,1015.51,64.464,50.38616,-4.147933,87.0,NaN,,3.17,9.0,63.3,8 / 18,"$GPGSV,3,3,09,21,00,000,*43::$GPGGA,195232,5023.168623,N,00408.874916,W,2,06,0.8,43.0,M,47.0,M,,*62::$GPVTG,72.4,T,72.4,M,1.7,N,3.1,K,D*22::$GLGSV,3,3,09,84,11,246,*50::$GPRMC,195232,A,5023.168623,N,00408.874916,W,1.7,72.4,300819,4.8,W,D*2D::$GPGSA,A,3,05,07,09,13,28,30,,,,,,,1.1,0.8,0.7*3D",42015,2019-08-30 20:52:32:874
-2.0084,-9.1463,0.4298,-1.1056,-9.7438,-0.0823,0.7325,1.2064,1.7894,1.043,-0.3238,-0.0503,0.0,19.43,42.66,-2.74,162.24,83.51,94.26,0.0,1015.54,64.396,50.38616,-4.147916,87.0,NaN,,3.2,10.0,76.7,8 / 18,"$GPGSV,3,3,09,21,00,000,*43::$GPGGA,195233,5023.169604,N,00408.875975,W,2,06,1.0,40.0,M,47.0,M,,*69::$GPVTG,63.3,T,63.3,M,1.7,N,3.2,K,D*21::$GLGSV,3,3,09,84,11,246,*50::$GPRMC,195233,A,5023.169604,N,00408.875975,W,1.7,63.3,300819,4.8,W,D*2B::$GPGSA,A,3,05,07,09,13,28,30,,,,,,,1.3,1.0,0.7*36",43015,2019-08-30 20:52:33:874
4.0749,-7.8323,3.3863,-1.2708,-9.3516,-2.6651,3.2676,4.4255,5.336,2.0857,-3.5702,-0.9452,0.0,20.47,42.5,4.15,63.56,65.44,164.31,0.0,1015.34,58.681,50.386166,-4.147897,86.0,NaN,,4.28,10.0,71.0,8 / 18,"$GPGSV,3,3,09,21,00,000,*43::$GPGGA,195234,5023.169596,N,00408.874949,W,2,06,1.6,40.0,M,47.0,M,,*6E::$GPVTG,76.7,T,76.7,M,1.7,N,3.2,K,D*21::$GLGSV,3,3,09,84,11,246,*50::$GPRMC,195234,A,5023.169596,N,00408.874949,W,1.7,76.7,300819,4.8,W,D*2A::$GPGSA,A,3,05,07,09,13,28,30,,,,,,,1.8,1.6,0.9*35",44016,2019-08-30 20:52:34:875
-6.0488,-21.1756,-16.6144,-0.4532,-9.0493,-3.7518,0.5855,-3.0573,-7.5306,-1.978,2.313,0.678,0.0,17.57,43.19,0.11,39.76,60.43,168.13,0.0,1015.59,64.423,50.38617,-4.147876,86.0,NaN,,4.46,10.0,66.8,8 / 18,"$GPGSV,3,3,09,21,00,000,*43::$GPGGA,195235,5023.169912,N,00408.873795,W,2,06,1.6,39.0,M,47.0,M,,*69::$GPVTG,71.0,T,71.0,M,2.3,N,4.3,K,D*20::$GLGSV,3,3,09,84,11,246,*50::$GPRMC,195235,A,5023.169912,N,00408.873795,W,2.3,71.0,300819,4.8,W,D*24::$GPGSA,A,3,05,07,09,13,28,30,,,,,,,1.8,1.6,0.9*35",45015,2019-08-30 20:52:35:874
1.9034,-5.0538,2.3865,-1.0476,-8.1354,-5.3748,2.128,4.2366,7.3894,-0.3714,1.2942,0.479,0.0,16.6,41.16,-8.24,37.92,59.42,165.03,0.0,1015.63,59.321,50.38617,-4.147851,86.0,NaN,,4.54,10.0,68.0,8 / 18,"$GPGSV,3,3,09,21,00,000,*43::$GPGGA,195236,5023.170137,N,00408.872579,W,2,06,1.7,39.0,M,47.0,M,,*6D::$GPVTG,66.8,T,66.8,M,2.4,N,4.5,K,D*21::$GLGSV,3,3,09,84,11,246,*50::$GPRMC,195236,A,5023.170137,N,00408.872579,W,2.4,66.8,300819,4.8,W,D*28::$GPGSA,A,3,05,07,09,13,28,30,,,,,,,1.9,1.7,0.9*35",46015,2019-08-30 20:52:36:874
2.3661,-12.8273,2.4696,-0.8094,-9.7677,-0.3269,4.1303,-2.5716,1.2384,-2.9743,-0.0529,0.9832,0.0,15.8,40.75,-16.75,207.73,83.02,21.41,0.0,1015.51,52.82,50.38617,-4.14784,86.0,NaN,,3.53,10.0,77.4,8 / 18,"$GPGSV,3,3,09,21,00,000,*43::$GPGGA,195237,5023.170102,N,00408.871076,W,2,06,1.6,39.0,M,47.0,M,,*62::$GPVTG,68.0,T,68.0,M,2.4,N,4.5,K,D*21::$GLGSV,3,3,09,84,11,246,*50::$GPRMC,195237,A,5023.170102,N,00408.871076,W,2.4,68.0,300819,4.8,W,D*20::$GPGSA,A,3,05,07,09,13,28,30,,,,,,,1.8,1.6,0.9*35",47015,2019-08-30 20:52:37:874
-1.1594,-9.6921,-1.9779,-0.1827,-9.6661,1.6442,-1.7275,-0.0337,-2.3345,0.6586,-0.7996,-0.3261,0.0,17.75,42.6,-10.35,254.99,80.29,6.34,0.0,1015.58,57.828,50.386166,-4.147809,86.0,NaN,,4.0,10.0,80.8,8 / 18,"$GPGSV,3,3,09,21,00,000,*43::$GPGGA,195238,5023.169965,N,00408.870377,W,2,06,2.2,39.0,M,47.0,M,,*68::$GPVTG,77.4,T,77.4,M,1.9,N,3.5,K,D*28::$GLGSV,3,3,09,84,11,246,*50::$GPRMC,195238,A,5023.169965,N,00408.870377,W,1.9,77.4,300819,4.8,W,D*29::$GPGSA,A,3,05,07,09,13,28,30,,,,,,,2.4,2.2,0.9*3D",48016,2019-08-30 20:52:38:875
-3.0321,-9.1342,0.2211,-0.8869,-9.72,0.9519,-1.4444,0.7905,-0.7433,0.7395,-0.4288,-0.3225,0.0,19.82,41.8,-4.41,137.08,82.92,111.4,0.0,1015.58,64.28,50.386166,-4.147809,86.0,NaN,,4.0,10.0,80.8,8 / 18,"$GPGSV,3,3,09,21,00,000,*43::$GPGGA,195239,5023.169894,N,00408.868550,W,2,06,1.2,39.0,M,47.0,M,,*6F::$GPVTG,80.8,T,80.8,M,2.2,N,4.0,K,D*22::$GLGSV,3,3,09,84,11,246,*50::$GPRMC,195239,A,5023.169894,N,00408.868550,W,2.2,80.8,300819,4.8,W,D*21::$GPGSA,A,3,05,07,09,13,28,30,,,,,,,1.5,1.2,0.9*3C",49015,2019-08-30 20:52:39:874
-4.9823,-12.7983,1.8943,-0.388,-9.757,-0.9064,0.5698,2.1639,4.204,1.386,0.5972,0.4191,0.0,18.9,43.03,3.38,69.44,73.54,175.7,0.0,1015.51,65.722,50.38617,-4.147776,87.0,NaN,,3.13,9.0,61.2,8 / 18,"$GPGSV,3,3,09,21,00,000,*43::$GPGGA,195240,5023.170114,N,00408.867245,W,2,06,0.9,40.0,M,47.0,M,,*60::$GPVTG,77.4,T,77.4,M,2.1,N,3.9,K,D*2F::$GLGSV,3,3,09,84,11,246,*50::$GPRMC,195240,A,5023.170114,N,00408.867245,W,2.1,77.4,300819,4.8,W,D*2D::$GPGSA,A,3,05,07,09,13,28,30,,,,,,,1.2,0.9,0.7*3F",50016,2019-08-30 20:52:40:875
6.8856,-5.9616,0.4064,-0.2036,-9.1346,-3.562,1.919,7.3333,3.7153,-1.8264,0.7503,1.0534,0.0,19.11,42.92,3.78,59.78,68.67,176.73,0.0,1015.69,62.958,50.386166,-4.147758,88.0,NaN,,3.85,9.0,70.7,8 / 18,"$GPGSV,3,3,09,21,00,000,*43::$GPGGA,195241,5023.170103,N,00408.866570,W,2,06,1.1,40.0,M,47.0,M,,*6E::$GPVTG,61.2,T,61.2,M,1.7,N,3.1,K,D*22::$GLGSV,3,3,09,84,11,246,*50::$GPRMC,195241,A,5023.170103,N,00408.866570,W,1.7,61.2,300819,4.8,W,D*2E::$GPGSA,A,3,05,07,09,13,28,30,,,,,,,1.4,1.1,0.8*3F",51016,2019-08-30 20:52:41:875
1.4996,-4.7166,1.3117,-0.6171,-8.6927,-4.4973,0.8637,4.1684,5.2874,-0.1993,0.9114,0.2608,0.0,16.97,41.6,-5.93,47.64,70.7,168.66,0.0,1015.6,59.522,50.38617,-4.147734,88.0,NaN,,4.61,9.0,74.5,8 / 18,"$GPGSV,3,3,09,21,00,000,*43::$GPGGA,195242,5023.169919,N,00408.865506,W,2,06,1.5,41.0,M,47.0,M,,*61::$GPVTG,70.7,T,70.7,M,2.1,N,3.9,K,D*2F::$GLGSV,3,3,09,84,11,246,*50::$GPRMC,195242,A,5023.169919,N,00408.865506,W,2.1,70.7,300819,4.8,W,D*24::$GPGSA,A,3,05,07,09,13,28,30,,,,,,,1.7,1.5,0.9*39",52015,2019-08-30 20:52:42:874
5.5012,-14.1057,3.3996,-0.8229,-9.6205,-1.7144,1.1429,-4.0207,3.8913,-2.3891,-0.1486,0.5187,0.0,15.59,40.09,-18.04,238.43,79.21,1.37,0.0,1015.56,50.362,50.38615,-4.147718,88.0,NaN,,4.03,9.0,75.4,8 / 18,"$GPGSV,3,3,09,21,00,000,*43::$GPGGA,195243,5023.170162,N,00408.864049,W,2,06,1.3,41.0,M,47.0,M,,*65::$GPVTG,74.5,T,74.5,M,2.5,N,4.6,K,D*23::$GLGSV,3,3,09,84,11,246,*50::$GPRMC,195243,A,5023.170162,N,00408.864049,W,2.5,74.5,300819,4.8,W,D*24::$GPGSA,A,3,05,07,09,13,28,30,,,,,,,1.5,1.3,0.8*3C",53016,2019-08-30 20:52:43:875
-1.4888,-10.6428,-0.2659,-0.2052,-9.702,1.4141,-0.1342,-0.3632,-2.7097,0.7078,-0.5558,-0.1214,0.0,17.14,42.36,-9.38,186.54,85.74,56.64,0.0,1015.62,62.167,50.386166,-4.14771,88.0,NaN,,3.96,9.0,67.9,8 / 18,"$GPGSV,3,3,09,21,00,000,*43::$GPGGA,195244,5023.169222,N,00408.863108,W,2,06,1.5,41.0,M,47.0,M,,*68::$GPVTG,75.4,T,75.4,M,2.2,N,4.0,K,D*22::$GLGSV,3,3,09,84,11,246,*50::$GPRMC,195244,A,5023.169222,N,00408.863108,W,2.2,75.4,300819,4.8,W,D*28::$GPGSA,A,3,05,07,09,13,28,30,,,,,,,1.7,1.5,0.9*39",54015,2019-08-30 20:52:44:874
-1.7992,-9.2114,1.7677,-0.7412,-9.7574,0.6428,-1.0244,0.9519,1.2034,0.5124,-0.1575,-0.0861,0.0,19.6,42.55,-3.42,193.21,86.17,70.15,0.0,1015.6,68.82,50.386173,-4.14769,88.0,NaN,,4.46,9.0,74.0,8 / 18,"$GPGSV,3,3,09,21,00,000,*43::$GPGGA,195245,5023.169810,N,00408.862620,W,2,06,1.2,41.0,M,47.0,M,,*69::$GPVTG,67.9,T,67.9,M,2.1,N,4.0,K,D*21::$GLGSV,3,3,09,84,11,246,*50::$GPRMC,195245,A,5023.169810,N,00408.862620,W,2.1,67.9,300819,4.8,W,D*23::$GPGSA,A,3,05,07,09,13,28,30,,,,,,,1.5,1.2,0.9*3C",55018,2019-08-30 20:52:45:877
-0.9562,-10.679,2.5659,-0.6285,-9.7555,-0.7781,4.0653,5.422,3.9782,1.2344,-1.6364,-0.1819,0.0,19.99,42.4,3.63,130.93,84.15,141.07,0.0,1015.45,64.103,50.386177,-4.147678,88.0,NaN,,3.28,9.0,56.9,8 / 18,"$GPGSV,3,3,09,21,00,000,*43::$GPGGA,195246,5023.170246,N,00408.861400,W,2,06,1.2,41.0,M,47.0,M,,*68::$GPVTG,74.0,T,74.0,M,2.4,N,4.5,K,D*21::$GLGSV,3,3,09,84,11,246,*50::$GPRMC,195246,A,5023.170246,N,00408.861400,W,2.4,74.0,300819,4.8,W,D*2C::$GPGSA,A,3,05,07,09,13,28,30,,,,,,,1.5,1.2,0.9*3C",56015,2019-08-30 20:52:46:874
-2.1121,-10.0237,-5.5562,0.1458,-9.461,-2.5764,2.2573,3.859,-0.2541,0.1126,1.152,0.2856,0.0,17.09,43.47,0.73,51.5,68.87,175.87,0.0,1015.64,57.135,50.386185,-4.147657,89.0,NaN,,3.74,9.0,59.3,8 / 18,"$GPGSV,3,3,09,21,00,000,*43::$GPGGA,195247,5023.170601,N,00408.860691,W,2,06,1.3,41.0,M,47.0,M,,*64::$GPVTG,56.9,T,56.9,M,1.8,N,3.3,K,D*2F::$GLGSV,3,3,09,84,11,246,*50::$GPRMC,195247,A,5023.170601,N,00408.860691,W,1.8,56.9,300819,4.8,W,D*27::$GPGSA,A,3,05,07,09,13,28,30,,,,,,,1.5,1.3,0.8*3C",57017,2019-08-30 20:52:47:876
0.1878,-4.0572,1.7938,-0.4531,-8.7612,-4.3825,1.3335,0.8458,6.4567,-0.7206,1.7152,0.5853,0.0,15.14,42.08,-10.9,37.58,73.8,169.81,0.0,1015.68,60.523,50.386192,-4.147638,89.0,NaN,,4.18,9.0,62.8,8 / 18,"$GPGSV,3,3,09,21,00,000,*43::$GPGGA,195248,5023.171054,N,00408.859406,W,2,06,0.9,42.0,M,47.0,M,,*62::$GPVTG,59.3,T,59.3,M,2.0,N,3.7,K,D*20::$GLGSV,3,3,09,84,11,246,*50::$GPRMC,195248,A,5023.171054,N,00408.859406,W,2.0,59.3,300819,4.8,W,D*27::$GPGSA,A,3,05,07,09,13,28,30,,,,,,,1.2,0.9,0.7*3F",58015,2019-08-30 20:52:48:874
3.1701,-13.8642,2.4363,-0.6767,-9.7016,-1.2612,-2.137,-4.3059,-0.8018,-2.4628,-0.0757,0.5399,0.0,14.09,40.13,-18.87,53.37,81.61,151.78,0.0,1015.71,56.475,50.386196,-4.147619,89.0,NaN,,3.82,10.0,66.7,8 / 18,"$GPGSV,3,3,09,21,00,000,*43::$GPGGA,195249,5023.171564,N,00408.858300,W,2,06,0.9,42.0,M,47.0,M,,*65::$GPVTG,62.8,T,62.8,M,2.3,N,4.2,K,D*21::$GLGSV,3,3,09,84,11,246,*50::$GPRMC,195249,A,5023.171564,N,00408.858300,W,2.3,62.8,300819,4.8,W,D*20::$GPGSA,A,3,05,07,09,13,28,30,,,,,,,1.2,0.9,0.7*3F",59016,2019-08-30 20:52:49:875
-0.8123,-9.5333,-1.9306,0.0105,-9.6899,1.5086,-1.296,0.0898,-2.719,0.4323,-0.6071,-0.278,0.0,17.24,41.58,-12.85,231.93,83.38,11.15,0.0,1015.63,54.955,50.3862,-4.147605,90.0,NaN,,4.0,9.0,66.8,8 / 18,"$GPGSV,3,3,09,21,00,000,*43::$GPGGA,195250,5023.171794,N,00408.857126,W,2,06,0.9,42.0,M,47.0,M,,*69::$GPVTG,66.7,T,66.7,M,2.1,N,3.8,K,D*2E::$GLGSV,3,3,09,84,11,246,*50::$GPRMC,195250,A,5023.171794,N,00408.857126,W,2.1,66.7,300819,4.8,W,D*25::$GPGSA,A,3,05,07,09,13,28,30,,,,,,,1.2,0.9,0.7*3F",60015,2019-08-30 20:52:50:874
-3.3045,-9.2198,0.463,-0.8319,-9.7712,-0.0376,1.3534,1.5673,1.146,1.0756,-0.9328,-0.3199,0.0,19.5,42.62,1.83,131.99,82.66,131.39,0.0,1015.61,62.916,50.3862,-4.147588,90.0,NaN,,4.43,9.0,70.5,8 / 18,"$GPGSV,3,3,09,21,00,000,*43::$GPGGA,195251,5023.171873,N,00408.856274,W,2,06,1.0,43.0,M,47.0,M,,*62::$GPVTG,66.8,T,66.8,M,2.2,N,4.0,K,D*22::$GLGSV,3,3,09,84,11,246,*50::$GPRMC,195251,A,5023.171873,N,00408.856274,W,2.2,66.8,300819,4.8,W,D*2B::$GPGSA,A,3,05,07,09,13,28,30,,,,,,,1.3,1.0,0.8*39",61014,2019-08-30 20:52:51:873
-3.7116,-10.6731,-1.7208,-0.0827,-9.1223,-3.5983,4.8146,-2.2703,2.3934,0.8874,0.1435,0.2787,0.0,17.95,43.4,4.9,58.42,67.9,177.95,0.0,1015.46,62.995,50.386208,-4.147576,89.0,NaN,,4.28,9.0,70.5,8 / 18,"$GPGSV,3,3,09,21,00,000,*43::$GPGGA,195252,5023.171858,N,00408.855278,W,2,06,1.0,43.0,M,47.0,M,,*67::$GPVTG,70.5,T,70.5,M,2.4,N,4.4,K,D*20::$GLGSV,3,3,09,84,11,246,*50::$GPRMC,195252,A,5023.171858,N,00408.855278,W,2.4,70.5,300819,4.8,W,D*22::$GPGSA,A,3,05,07,09,13,28,30,,,,,,,1.3,1.0,0.8*39",62016,2019-08-30 20:52:52:875
2.222,-5.5091,-5.4654,-0.6226,-9.2694,-3.1401,1.2816,5.777,2.4323,1.7543,-0.0404,-0.7227,0.0,15.13,42.59,-5.64,46.26,72.66,158.52,0.0,1015.7,59.055,50.386196,-4.147557,89.0,NaN,,4.03,9.0,74.0,8 / 18,"$GPGSV,3,3,09,21,00,000,*43::$GPGGA,195253,5023.172427,N,00408.854585,W,2,06,1.1,42.0,M,47.0,M,,*65::$GPVTG,70.5,T,70.5,M,2.3,N,4.3,K,D*20::$GLGSV,3,3,09,84,11,246,*50::$GPRMC,195253,A,5023.172427,N,00408.854585,W,2.3,70.5,300819,4.8,W,D*27::$GPGSA,A,3,05,07,09,13,28,30,,,,,,,1.4,1.1,0.8*3F",63015,2019-08-30 20:52:53:874
0.5932,-8.6587,1.2105,-1.2148,-8.6307,-4.495,1.1335,-1.9129,5.5287,-1.3427,1.9907,0.6024,0.0,13.65,40.51,-17.46,53.61,75.23,143.81,0.0,1015.7,59.785,50.386204,-4.147538,90.0,NaN,,3.92,9.0,67.2,8 / 18,"$GPGSV,3,3,09,21,00,000,*43::$GPGGA,195254,5023.171825,N,00408.853428,W,2,06,1.1,42.0,M,47.0,M,,*6E::$GPVTG,74.0,T,74.0,M,2.2,N,4.0,K,D*22::$GLGSV,3,3,09,84,11,246,*50::$GPRMC,195254,A,5023.171825,N,00408.853428,W,2.2,74.0,300819,4.8,W,D*2C::$GPGSA,A,3,05,07,09,13,28,30,,,,,,,1.4,1.1,0.8*3F",64016,2019-08-30 20:52:54:875
-4.3372,-13.1246,-1.1927,0.1548,-9.6098,1.949,-1.0165,-0.7161,-3.0542,-0.7662,0.0093,-0.3085,0.0,13.49,40.64,-18.96,217.44,79.22,9.19,0.0,1015.64,54.413,50.386204,-4.147521,90.0,NaN,,3.42,9.0,65.7,8 / 18,"$GPGSV,3,3,09,21,00,000,*43::$GPGGA,195255,5023.172203,N,00408.852289,W,2,06,1.1,43.0,M,47.0,M,,*6F::$GPVTG,67.2,T,67.2,M,2.1,N,3.9,K,D*2F::$GLGSV,3,3,09,84,11,246,*50::$GPRMC,195255,A,5023.172203,N,00408.852289,W,2.1,67.2,300819,4.8,W,D*2F::$GPGSA,A,3,05,07,09,13,28,30,,,,,,,1.4,1.1,0.8*3F",65015,2019-08-30 20:52:55:874
-1.6806,-9.6481,-0.4622,-0.5327,-9.759,0.805,0.1772,0.7796,-0.6707,0.6259,-0.5249,-0.4424,0.0,19.16,42.53,-3.79,235.08,84.35,33.49,0.0,1015.63,66.7,50.386208,-4.14749,90.0,NaN,,4.25,9.0,71.5,8 / 18,"$GPGSV,3,3,09,21,00,000,*43::$GPGGA,195256,5023.172157,N,00408.851273,W,2,06,1.2,43.0,M,47.0,M,,*6B::$GPVTG,65.7,T,65.7,M,1.8,N,3.4,K,D*28::$GLGSV,3,3,09,84,11,246,*50::$GPRMC,195256,A,5023.172157,N,00408.851273,W,1.8,65.7,300819,4.8,W,D*25::$GPGSA,A,3,05,07,09,13,28,30,,,,,,,1.5,1.2,0.9*3C",66016,2019-08-30 20:52:56:875
-4.5127,-11.1135,-0.3802,-1.2091,-9.5766,-1.7311,3.9996,5.458,5.389,1.6334,-2.563,-1.0351,0.0,19.13,42.99,0.29,75.69,71.89,155.71,0.0,1015.52,58.126,50.38621,-4.147482,90.0,NaN,,4.36,9.0,72.2,8 / 18,"$GPGSV,3,3,09,21,00,000,*43::$GPGGA,195257,5023.172333,N,00408.849409,W,2,06,1.1,43.0,M,47.0,M,,*6B::$GPVTG,71.5,T,71.5,M,2.3,N,4.2,K,D*21::$GLGSV,3,3,09,84,11,246,*50::$GPRMC,195257,A,5023.172333,N,00408.849409,W,2.3,71.5,300819,4.8,W,D*29::$GPGSA,A,3,05,07,09,13,28,30,,,,,,,1.4,1.1,0.8*3F",67016,2019-08-30 20:52:57:875
3.7358,-9.8763,1.5498,-0.5624,-9.089,-3.6392,-5.8825,-10.9339,-11.8373,-0.8886,0.6041,0.8033,0.0,17.03,43.63,2.03,53.33,67.94,171.22,0.0,1015.58,58.083,50.386215,-4.147465,90.0,NaN,,3.82,9.0,68.0,8 / 18,"$GPGSV,3,3,09,21,00,000,*43::$GPGGA,195258,5023.172637,N,00408.848914,W,2,06,1.0,43.0,M,47.0,M,,*64::$GPVTG,72.2,T,72.2,M,2.4,N,4.4,K,D*20::$GLGSV,3,3,09,84,11,246,*50::$GPRMC,195258,A,5023.172637,N,00408.848914,W,2.4,72.2,300819,4.8,W,D*24::$GPGSA,A,3,05,07,09,13,28,30,,,,,,,1.3,1.0,0.8*39",68015,2019-08-30 20:52:58:874
0.8028,-3.2539,0.4446,-0.7341,-8.9766,-3.8798,1.6023,5.3665,5.04,1.9565,0.1135,-0.0344,0.0,13.17,41.88,-11.84,30.64,63.09,165.19,0.0,1015.67,54.113,50.38622,-4.147464,90.0,NaN,,3.78,9.0,55.5,8 / 18,"$GPGSV,3,3,09,21,00,000,*43::$GPGGA,195300,5023.173247,N,00408.847829,W,2,06,1.5,43.0,M,47.0,M,,*6F::$GPVTG,55.5,T,55.5,M,2.0,N,3.8,K,D*2F::$GLGSV,3,3,09,84,11,246,*50::$GPRMC,195300,A,5023.173247,N,00408.847829,W,2.0,55.5,300819,4.8,W,D*2C::$GPGSA,A,3,05,07,09,13,28,30,,,,,,,1.7,1.5,0.9*39",69015,2019-08-30 20:52:59:874
-2.9968,-11.4909,-1.7041,-0.5085,-9.7034,-1.3248,2.9096,-2.3561,2.9665,-2.434,-0.2127,0.435,0.0,13.13,41.81,-14.86,48.81,81.68,159.0,0.0,1015.71,53.649,50.386223,-4.147468,88.0,NaN,,3.6,9.0,59.8,8 / 18,"$GPGSV,3,3,09,21,00,000,*43::$GPGGA,195300,5023.173247,N,00408.847829,W,2,06,1.5,43.0,M,47.0,M,,*6F::$GPVTG,55.5,T,55.5,M,2.0,N,3.8,K,D*2F::$GLGSV,3,3,09,84,11,246,*50::$GPRMC,195300,A,5023.173247,N,00408.847829,W,2.0,55.5,300819,4.8,W,D*2C::$GPGSA,A,3,05,07,09,13,28,30,,,,,,,1.7,1.5,0.9*39",70015,2019-08-30 20:53:00:874
-3.9621,-13.48,-4.0631,0.0316,-9.6801,1.5698,-3.55,-2.3775,-3.3688,-1.8904,0.0605,0.3533,0.0,14.2,40.58,-18.67,230.37,80.79,-1.15,0.0,1015.6,52.451,50.38623,-4.147449,89.0,NaN,,4.25,9.0,66.9,8 / 18,"$GPGSV,3,3,09,21,00,000,*43::$GPGGA,195301,5023.173406,N,00408.848108,W,2,06,1.0,41.0,M,47.0,M,,*6F::$GPVTG,59.8,T,59.8,M,1.9,N,3.6,K,D*2B::$GLGSV,3,3,09,84,11,246,*50::$GPRMC,195301,A,5023.173406,N,00408.848108,W,1.9,59.8,300819,4.8,W,D*20::$GPGSA,A,3,05,07,09,13,28,30,,,,,,,1.3,1.0,0.8*39",71015,2019-08-30 20:53:01:874
-2.3773,-9.1478,0.9786,-0.1983,-9.5905,2.0382,-2.0901,0.0138,-1.5762,0.9698,-0.4014,-0.3327,0.0,17.82,41.96,-9.61,228.0,81.82,25.75,0.0,1015.68,55.89,50.386234,-4.147423,90.0,NaN,,5.36,9.0,71.9,8 / 18,"$GPGSV,3,3,09,21,00,000,*43::$GPGGA,195303,5023.174231,N,00408.845354,W,2,06,1.2,43.0,M,47.0,M,,*6E::$GPVTG,71.9,T,71.9,M,2.9,N,5.4,K,D*2C::$GLGSV,3,3,09,84,11,246,*50::$GPRMC,195303,A,5023.174231,N,00408.845354,W,2.9,71.9,300819,4.8,W,D*29::$GPGSA,A,3,05,07,09,13,28,30,,,,,,,1.5,1.2,0.9*3C",72015,2019-08-30 20:53:02:874
-1.1377,-8.5774,0.5733,-0.2765,-9.7962,0.3573,0.2275,-0.8554,1.0135,0.8317,-0.7092,0.488,0.0,17.38,43.69,-2.46,149.43,88.56,111.97,0.0,1015.66,68.097,50.38624,-4.147404,90.0,NaN,,4.9,9.0,70.1,8 / 18,"$GPGSV,3,3,09,21,00,000,*43::$GPGGA,195304,5023.174387,N,00408.844250,W,2,06,1.1,43.0,M,47.0,M,,*62::$GPVTG,70.1,T,70.1,M,2.6,N,4.9,K,D*2F::$GLGSV,3,3,09,84,11,246,*50::$GPRMC,195304,A,5023.174387,N,00408.844250,W,2.6,70.1,300819,4.8,W,D*20::$GPGSA,A,3,05,07,09,13,28,30,,,,,,,1.4,1.1,0.8*3F",73015,2019-08-30 20:53:03:874
1.9081,-10.4583,-4.2619,-1.0471,-9.4023,-2.5827,0.8096,2.0429,-3.4788,-0.0214,1.4325,-0.1143,0.0,20.25,42.38,1.7,80.57,73.49,157.93,0.0,1015.69,57.503,50.38625,-4.147422,87.0,NaN,,3.78,9.0,67.0,8 / 18,"$GPGSV,3,3,09,21,00,000,*43::$GPGGA,195305,5023.174841,N,00408.845300,W,2,06,0.9,40.0,M,47.0,M,,*6D::$GPVTG,67.0,T,67.0,M,2.0,N,3.8,K,D*2F::$GLGSV,3,3,09,84,11,246,*50::$GPRMC,195305,A,5023.174841,N,00408.845300,W,2.0,67.0,300819,4.8,W,D*24::$GPGSA,A,3,05,07,09,13,28,30,,,,,,,1.2,0.9,0.7*3F",74015,2019-08-30 20:53:04:874
0.502,-3.6839,1.2783,-0.3984,-8.7559,-4.3984,1.5696,1.6926,6.4766,-0.3272,1.4182,0.3121,0.0,15.37,42.38,-7.4,33.05,63.23,174.82,0.0,1015.69,59.474,50.386253,-4.147396,88.0,NaN,,4.18,9.0,66.4,8 / 18,"$GPGSV,3,3,09,21,00,000,*43::$GPGGA,195306,5023.175188,N,00408.843740,W,2,06,0.9,41.0,M,47.0,M,,*64::$GPVTG,66.4,T,66.4,M,2.3,N,4.2,K,D*21::$GLGSV,3,3,09,84,11,246,*50::$GPRMC,195306,A,5023.175188,N,00408.843740,W,2.3,66.4,300819,4.8,W,D*2A::$GPGSA,A,3,05,07,09,13,28,30,,,,,,,1.2,0.9,0.7*3F",75015,2019-08-30 20:53:05:874
-4.9552,-10.7294,-1.5699,-0.6661,-9.3399,-2.9142,-1.4836,-2.9071,2.8988,-1.7236,1.4002,0.6797,0.0,13.96,41.48,-17.55,96.54,89.51,120.45,0.0,1015.73,51.521,50.38626,-4.147399,87.0,NaN,,2.84,9.0,76.0,8 / 18,"$GPGSV,3,3,09,21,00,000,*43::$GPGGA,195307,5023.175654,N,00408.843922,W,2,06,0.9,40.0,M,47.0,M,,*68::$GPVTG,76.0,T,76.0,M,1.5,N,2.8,K,D*28::$GLGSV,3,3,09,84,11,246,*50::$GPRMC,195307,A,5023.175654,N,00408.843922,W,1.5,76.0,300819,4.8,W,D*27::$GPGSA,A,3,05,07,09,13,28,30,,,,,,,1.2,0.9,0.7*3F",76015,2019-08-30 20:53:06:874
-2.3786,-9.9654,-0.1176,0.4944,-9.6039,1.921,-4.6424,-2.4125,-2.3834,-0.8624,-0.2494,0.2804,0.0,16.51,41.91,-12.95,260.32,78.63,-4.66,0.0,1015.66,55.509,50.386257,-4.147395,86.0,NaN,,2.45,10.0,90.1,8 / 18,"$GPGSV,3,3,09,21,00,000,*43::$GPGGA,195308,5023.175302,N,00408.843717,W,2,06,1.5,39.0,M,47.0,M,,*6A::$GPVTG,90.1,T,90.1,M,1.3,N,2.4,K,D*22::$GLGSV,3,3,09,84,11,246,*50::$GPRMC,195308,A,5023.175302,N,00408.843717,W,1.3,90.1,300819,4.8,W,D*29::$GPGSA,A,3,05,07,09,13,28,30,,,,,,,1.7,1.5,0.9*39",77015,2019-08-30 20:53:07:874
0.445,-8.252,-0.3628,-0.8416,-9.7498,0.6354,1.2842,1.1848,-0.3089,0.9794,-0.8884,-0.3985,0.0,20.1,42.13,-2.26,219.79,83.83,52.95,0.0,1015.64,62.947,50.386265,-4.147409,85.0,NaN,,1.48,10.0,37.0,8 / 18,"$GPGSV,3,3,09,21,00,000,*43::$GPGGA,195309,5023.175989,N,00408.844562,W,2,06,1.3,38.0,M,47.0,M,,*62::$GPVTG,37.0,T,37.0,M,0.8,N,1.5,K,D*2A::$GLGSV,3,3,09,84,11,246,*50::$GPRMC,195309,A,5023.175989,N,00408.844562,W,0.8,37.0,300819,4.8,W,D*20::$GPGSA,A,3,05,07,09,13,28,30,,,,,,,1.6,1.3,0.8*3F",78015,2019-08-30 20:53:08:874
-3.0658,-11.5071,1.271,-0.6877,-9.4755,-2.4317,-0.4359,0.2583,4.731,1.9838,-2.5533,-0.1626,0.0,18.91,43.24,4.07,82.17,75.07,164.21,0.0,1015.52,63.061,50.386272,-4.147368,87.0,NaN,,4.43,11.0,74.8,8 / 18,"$GPGSV,3,3,09,21,00,000,*43::$GPGGA,195310,5023.176267,N,00408.842077,W,2,06,1.0,40.0,M,47.0,M,,*69::$GPVTG,74.8,T,74.8,M,2.4,N,4.4,K,D*20::$GLGSV,3,3,09,84,11,246,*50::$GPRMC,195310,A,5023.176267,N,00408.842077,W,2.4,74.8,300819,4.8,W,D*26::$GPGSA,A,3,05,07,09,13,28,30,,,,,,,1.3,1.0,0.8*39",79015,2019-08-30 20:53:09:874
1.3753,-10.5907,-2.9632,-0.9439,-9.2285,-3.1804,2.5129,1.9827,-6.0115,-0.9745,1.6258,-0.3353,0.0,16.42,42.7,-3.66,48.3,68.11,160.72,0.0,1015.76,60.72,50.386272,-4.147344,87.0,NaN,,3.82,11.0,75.2,8 / 18,"$GPGSV,3,3,09,21,00,000,*43::$GPGGA,195310,5023.176267,N,00408.842077,W,2,06,1.0,40.0,M,47.0,M,,*69::$GPVTG,75.2,T,75.2,M,2.1,N,3.8,K,D*2E::$GLGSV,3,3,09,84,11,246,*50::$GPRMC,195311,A,5023.176307,N,00408.840667,W,2.1,75.2,300819,4.8,W,D*2B::$GPGSA,A,3,05,07,09,13,28,30,,,,,,,1.3,1.0,0.8*39",80015,2019-08-30 20:53:10:874
1.7737,-7.0008,1.1532,-0.8834,-9.4149,-2.598,-5.3371,-2.8025,1.5222,-1.6807,1.4011,0.4593,0.0,13.76,41.86,-13.66,41.39,73.75,161.22,0.0,1015.75,51.388,50.38627,-4.147318,88.0,NaN,,3.24,10.0,64.0,8 / 18,"$GPGSV,3,3,09,21,00,000,*43::$GPGGA,195311,5023.176307,N,00408.840667,W,2,06,1.0,40.0,M,47.0,M,,*6A::$GPVTG,75.2,T,75.2,M,2.1,N,3.8,K,D*2E::$GLGSV,3,3,09,84,11,246,*50::$GPRMC,195311,A,5023.176307,N,00408.840667,W,2.1,75.2,300819,4.8,W,D*2B::$GPGSA,A,3,05,07,09,13,28,30,,,,,,,1.3,1.0,0.8*39",81015,2019-08-30 20:53:11:874
-1.106,-12.5644,-2.3227,0.479,-9.6714,1.5505,-4.2485,-3.4212,-4.6958,-1.6445,0.0916,0.3891,0.0,11.34,41.22,-19.31,243.84,80.47,-17.17,0.0,1015.73,55.456,50.386272,-4.147291,89.0,NaN,,3.35,10.0,59.1,8 / 18,"$GPGSV,3,3,09,21,00,000,*43::$GPGGA,195312,5023.176109,N,00408.839075,W,2,06,0.8,41.0,M,47.0,M,,*66::$GPVTG,64.0,T,64.0,M,1.7,N,3.2,K,D*21::$GLGSV,3,3,09,84,11,246,*50::$GPRMC,195312,A,5023.176109,N,00408.839075,W,1.7,64.0,300819,4.8,W,D*28::$GPGSA,A,3,05,07,09,13,28,30,,,,,,,1.1,0.8,0.7*3D",82015,2019-08-30 20:53:12:874
-1.5171,-9.2897,-0.6527,-0.5209,-9.6262,1.7984,-1.5096,0.6129,-0.8843,0.7995,-0.4561,-0.3356,0.0,17.3,42.06,-10.19,193.92,82.33,49.66,0.0,1015.71,67.034,50.38628,-4.147266,89.0,NaN,,3.6,10.0,55.4,8 / 18,"$GPGSV,3,3,09,21,00,000,*43::$GPGGA,195313,5023.176208,N,00408.837470,W,2,06,1.1,42.0,M,47.0,M,,*61::$GPVTG,59.1,T,59.1,M,1.8,N,3.3,K,D*2F::$GLGSV,3,3,09,84,11,246,*50::$GPRMC,195313,A,5023.176208,N,00408.837470,W,1.8,59.1,300819,4.8,W,D*24::$GPGSA,A,3,05,07,09,13,28,30,,,,,,,1.4,1.1,0.8*3F",83017,2019-08-30 20:53:13:876
-5.0883,-9.3807,0.9227,-0.9304,-9.7351,0.7296,-2.8582,-1.4216,-1.0482,0.4253,-0.929,0.4997,0.0,18.37,42.75,-3.69,215.09,83.08,51.9,0.0,1015.67,68.358,50.386284,-4.147274,87.0,NaN,,4.0,10.0,63.3,8 / 18,"$GPGSV,3,3,09,21,00,000,*43::$GPGGA,195314,5023.176730,N,00408.835958,W,2,06,1.1,42.0,M,47.0,M,,*6D::$GPVTG,55.4,T,55.4,M,1.9,N,3.6,K,D*2B::$GLGSV,3,3,09,84,11,246,*50::$GPRMC,195314,A,5023.176730,N,00408.835958,W,1.9,55.4,300819,4.8,W,D*20::$GPGSA,A,3,05,07,09,13,28,30,,,,,,,1.4,1.1,0.8*3F",84015,2019-08-30 20:53:14:874
1.3197,-9.9239,2.0459,-0.8176,-9.2801,-3.0628,-4.7154,-7.6986,-7.6203,0.0346,0.3902,0.1548,0.0,16.95,44.4,1.81,62.6,71.14,165.05,0.0,1015.58,59.414,50.386288,-4.147265,87.0,NaN,,3.78,10.0,63.2,8 / 18,"$GPGSV,3,3,09,21,00,000,*43::$GPGGA,195316,5023.177389,N,00408.835900,W,2,06,1.1,40.0,M,47.0,M,,*67::$GPVTG,63.2,T,63.2,M,2.0,N,3.8,K,D*2F::$GLGSV,3,3,09,84,11,246,*50::$GPRMC,195316,A,5023.177389,N,00408.835900,W,2.0,63.2,300819,4.8,W,D*21::$GPGSA,A,3,05,07,09,13,28,30,,,,,,,1.4,1.1,0.8*3F",85015,2019-08-30 20:53:15:874
0.5902,-4.8815,0.2585,-0.8539,-8.8944,-4.0411,2.3198,2.4177,5.2197,0.1008,1.3792,0.4758,0.0,12.91,42.2,-10.2,31.5,65.09,168.07,0.0,1015.75,58.776,50.386288,-4.147265,87.0,NaN,,3.78,10.0,63.2,8 / 18,"$GPGSV,3,3,09,21,00,000,*43::$GPGGA,195316,5023.177389,N,00408.835900,W,2,06,1.1,40.0,M,47.0,M,,*67::$GPVTG,63.2,T,63.2,M,2.0,N,3.8,K,D*2F::$GLGSV,3,3,09,84,11,246,*50::$GPRMC,195316,A,5023.177389,N,00408.835900,W,2.0,63.2,300819,4.8,W,D*21::$GPGSA,A,3,05,07,09,13,28,30,,,,,,,1.4,1.1,0.8*3F",86016,2019-08-30 20:53:16:875
-4.0233,-11.474,-1.7652,-1.0888,-9.5651,-1.8691,4.5904,-1.778,2.087,-1.9389,-0.1833,0.228,0.0,15.17,40.93,-18.07,94.59,84.15,114.9,0.0,1015.72,51.546,50.3863,-4.147227,88.0,NaN,,3.85,10.0,63.2,8 / 18,"$GPGSV,3,3,09,21,00,000,*43::$GPGGA,195317,5023.177552,N,00408.834468,W,2,06,0.9,41.0,M,47.0,M,,*6C::$GPVTG,63.3,T,63.3,M,2.2,N,4.1,K,D*23::$GLGSV,3,3,09,84,11,246,*50::$GPRMC,195317,A,5023.177552,N,00408.834468,W,2.2,63.3,300819,4.8,W,D*21::$GPGSA,A,3,05,07,09,13,28,30,,,,,,,1.2,0.9,0.7*3F",87015,2019-08-30 20:53:17:874
-1.8495,-9.8471,-1.6886,-0.4209,-9.6467,1.713,-3.2085,-1.2905,-1.1395,0.0744,-0.4965,-0.2434,0.0,15.16,41.68,-15.17,208.31,81.23,25.23,0.0,1015.71,59.35,50.386307,-4.147224,88.0,NaN,,3.53,10.0,63.2,8 / 18,"$GPGSV,3,3,09,21,00,000,*43::$GPGGA,195318,5023.177967,N,00408.833615,W,2,06,0.9,41.0,M,47.0,M,,*66::$GPVTG,63.2,T,63.2,M,2.1,N,3.9,K,D*2F::$GLGSV,3,3,09,84,11,246,*50::$GPRMC,195318,A,5023.177967,N,00408.833615,W,2.1,63.2,300819,4.8,W,D*29::$GPGSA,A,3,05,07,09,13,28,30,,,,,,,1.2,0.9,0.7*3F",88017,2019-08-30 20:53:18:876
0.4657,-8.1448,0.0245,-1.0737,-9.7472,0.1014,-1.3714,0.7366,0.4166,0.781,-1.256,0.6446,0.0,17.43,42.37,-7.76,153.82,83.69,84.61,0.0,1015.72,69.042,50.38631,-4.147206,88.0,NaN,,3.96,9.0,63.2,8 / 18,"$GPGSV,3,3,09,21,00,000,*43::$GPGGA,195319,5023.178406,N,00408.833463,W,2,06,1.0,41.0,M,47.0,M,,*69::$GPVTG,63.2,T,63.2,M,1.9,N,3.5,K,D*28::$GLGSV,3,3,09,84,11,246,*50::$GPRMC,195319,A,5023.178406,N,00408.833463,W,1.9,63.2,300819,4.8,W,D*25::$GPGSA,A,3,05,07,09,13,28,30,,,,,,,1.3,1.0,0.8*39",89016,2019-08-30 20:53:19:875
-2.308,-14.1272,0.3564,-1.0945,-9.0899,-3.5138,-3.9144,2.1764,-0.2839,0.9218,-0.8765,-0.098,0.0,19.31,43.39,1.34,60.7,67.96,162.7,0.0,1015.53,57.823,50.38632,-4.147193,88.0,NaN,,4.14,9.0,63.2,8 / 18,"$GPGSV,3,3,09,21,00,000,*43::$GPGGA,195320,5023.178702,N,00408.832361,W,2,06,0.9,41.0,M,47.0,M,,*68::$GPVTG,63.2,T,63.2,M,2.1,N,4.0,K,D*21::$GLGSV,3,3,09,84,11,246,*50::$GPRMC,195320,A,5023.178702,N,00408.832361,W,2.1,63.2,300819,4.8,W,D*27::$GPGSA,A,3,05,07,09,13,28,30,,,,,,,1.2,0.9,0.7*3F",90020,2019-08-30 20:53:20:879
-4.6286,-19.9209,-14.7871,-0.941,-9.0338,-3.6979,2.1187,5.4756,4.5209,2.4349,-0.9968,-0.4703,0.0,14.06,42.55,-8.95,32.33,61.36,164.96,0.0,1015.74,58.909,50.38632,-4.147174,88.0,NaN,,4.21,9.0,63.2,8 / 18,"$GPGSV,3,3,09,21,00,000,*43::$GPGGA,195322,5023.179246,N,00408.830421,W,2,06,0.9,41.0,M,47.0,M,,*6F::$GPVTG,63.2,T,63.2,M,2.3,N,4.2,K,D*21::$GLGSV,3,3,09,84,11,246,*50::$GPRMC,195322,A,5023.179246,N,00408.830421,W,2.3,63.2,300819,4.8,W,D*22::$GPGSA,A,3,05,07,09,13,28,30,,,,,,,1.2,0.9,0.7*3F",91015,2019-08-30 20:53:21:874
-2.3776,-10.1257,-1.3274,-1.308,-9.2503,-2.9819,-2.494,-2.3874,2.1029,-1.7574,0.684,0.6232,0.0,13.15,41.23,-17.8,47.93,77.85,151.57,0.0,1015.79,50.359,50.38632,-4.147155,88.0,NaN,,4.9,9.0,70.8,8 / 18,"$GPGSV,3,3,09,21,00,000,*43::$GPGGA,195322,5023.179246,N,00408.830421,W,2,06,0.9,41.0,M,47.0,M,,*6F::$GPVTG,63.2,T,63.2,M,2.3,N,4.2,K,D*21::$GLGSV,3,1,09,78,00,000,33,70,16,299,12,86,09,355,25,77,10,023,18*6A::$GPRMC,195322,A,5023.179246,N,00408.830421,W,2.3,63.2,300819,4.8,W,D*22::$GPGSA,A,3,05,07,09,13,28,30,,,,,,,1.2,0.9,0.7*3F",92015,2019-08-30 20:53:22:874
-4.3282,-14.0394,-2.9946,-0.1466,-9.6908,1.4957,-3.5381,-3.1657,-3.5402,-1.5125,0.0259,0.4644,0.0,14.33,40.45,-18.41,233.82,77.94,2.13,0.0,1015.69,60.771,50.38632,-4.147128,89.0,NaN,,4.5,9.0,69.6,8 / 18,"$GPGSV,3,3,09,21,00,000,*43::$GPGGA,195323,5023.179214,N,00408.829274,W,2,06,1.1,41.0,M,47.0,M,,*6E::$GPVTG,70.8,T,70.8,M,2.6,N,4.9,K,D*2F::$GLGSV,3,3,09,84,11,246,*50::$GPRMC,195323,A,5023.179214,N,00408.829274,W,2.6,70.8,300819,4.8,W,D*27::$GPGSA,A,3,05,07,09,13,28,30,,,,,,,1.2,0.9,0.7*3F",93014,2019-08-30 20:53:23:873
-1.7673,-9.3213,0.4062,-0.5223,-9.7916,0.1513,-1.6776,0.2892,-0.3897,1.0383,-0.41,-0.2655,0.0,15.13,44.14,-4.53,103.12,84.99,134.65,0.0,1015.7,63.88,50.38633,-4.14712,88.0,NaN,,4.18,9.0,57.8,8 / 18,"$GPGSV,3,3,09,21,00,000,*43::$GPGGA,195325,5023.179556,N,00408.827205,W,2,06,0.9,41.0,M,47.0,M,,*68::$GPVTG,57.8,T,57.8,M,2.3,N,4.2,K,D*21::$GLGSV,3,3,09,84,11,246,*50::$GPRMC,195325,A,5023.179556,N,00408.827205,W,2.3,57.8,300819,4.8,W,D*28::$GPGSA,A,3,05,07,09,13,28,30,,,,,,,1.2,0.9,0.7*3F",94015,2019-08-30 20:53:24:874
-2.9627,-12.075,2.4716,-0.9732,-9.5427,-2.0396,3.0748,1.1229,4.1436,1.5987,-2.2319,-0.0687,0.0,18.74,43.42,1.66,89.33,76.68,154.49,0.0,1015.65,63.499,50.38633,-4.14711,88.0,NaN,,3.28,9.0,63.3,8 / 18,"$GPGSV,3,3,09,21,00,000,*43::$GPGGA,195326,5023.179688,N,00408.826577,W,2,06,0.9,41.0,M,47.0,M,,*68::$GPVTG,63.3,T,63.3,M,1.8,N,3.3,K,D*2F::$GLGSV,3,3,09,84,11,246,*50::$GPRMC,195326,A,5023.179688,N,00408.826577,W,1.8,63.3,300819,4.8,W,D*2C::$GPGSA,A,3,05,07,09,13,28,30,,,,,,,1.2,0.9,0.7*3F",95015,2019-08-30 20:53:25:874
-0.4036,-10.5368,-9.1758,-0.6035,-9.1486,-3.4798,-5.195,-9.8979,-10.5847,-0.4824,0.496,0.4205,0.0,17.46,43.23,0.34,44.45,62.17,168.02,0.0,1015.81,57.985,50.386333,-4.147095,88.0,NaN,,3.1,9.0,63.3,8 / 18,"$GPGSV,3,3,09,21,00,000,*43::$GPGGA,195326,5023.179688,N,00408.826577,W,2,06,0.9,41.0,M,47.0,M,,*68::$GPVTG,63.3,T,63.3,M,1.8,N,3.3,K,D*2F::$GLGSV,3,3,09,84,11,246,*50::$GPRMC,195326,A,5023.179688,N,00408.826577,W,1.8,63.3,300819,4.8,W,D*2C::$GPGSA,A,3,05,07,09,13,28,30,,,,,,,1.2,0.9,0.7*3F",96015,2019-08-30 20:53:26:874
1.2646,-7.1284,1.5687,-0.8465,-8.6532,-4.536,1.6026,2.3101,6.1373,0.2468,0.9514,0.0867,0.0,13.21,41.41,-14.88,43.43,74.06,152.73,0.0,1015.78,59.721,50.386337,-4.147086,88.0,NaN,,2.99,9.0,63.3,8 / 18,"$GPGSV,3,3,09,21,00,000,*43::$GPGGA,195327,5023.179846,N,00408.825729,W,2,06,1.1,41.0,M,47.0,M,,*66::$GPVTG,63.3,T,63.3,M,1.7,N,3.1,K,D*22::$GLGSV,3,3,09,84,11,246,*50::$GPRMC,195327,A,5023.179846,N,00408.825729,W,1.7,63.3,300819,4.8,W,D*24::$GPGSA,A,3,05,07,09,13,28,30,,,,,,,1.4,1.1,0.8*3F",97015,2019-08-30 20:53:27:874
-4.2596,-11.1831,-0.8111,-0.5753,-9.6741,-1.5006,0.5214,-4.5497,-0.6992,-2.3103,-0.6169,0.5842,0.0,10.34,41.12,-19.53,37.36,80.57,159.02,0.0,1015.7,54.535,50.38634,-4.147065,88.0,NaN,,3.2,9.0,56.0,8 / 18,"$GPGSV,3,3,09,21,00,000,*43::$GPGGA,195328,5023.180104,N,00408.825165,W,2,06,1.1,41.0,M,47.0,M,,*6E::$GPVTG,63.3,T,63.3,M,1.6,N,3.0,K,D*22::$GLGSV,3,3,09,84,11,246,*50::$GPRMC,195328,A,5023.180104,N,00408.825165,W,1.6,63.3,300819,4.8,W,D*2D::$GPGSA,A,3,05,07,09,13,28,30,,,,,,,1.4,1.1,0.8*3F",98016,2019-08-30 20:53:28:875
-3.8659,-12.7659,-1.9265,0.258,-9.6359,1.8036,-2.25,0.3515,-0.9045,0.2807,-0.3454,-0.4612,0.0,15.51,41.85,-13.03,217.66,84.62,20.09,0.0,1015.73,55.952,50.38635,-4.147052,89.0,NaN,,3.56,9.0,55.5,8 / 18,"$GPGSV,3,3,09,21,00,000,*43::$GPGGA,195329,5023.180396,N,00408.823875,W,2,06,0.9,41.0,M,47.0,M,,*61::$GPVTG,56.0,T,56.0,M,1.7,N,3.2,K,D*21::$GLGSV,3,3,09,84,11,246,*50::$GPRMC,195329,A,5023.180396,N,00408.823875,W,1.7,56.0,300819,4.8,W,D*2F::$GPGSA,A,3,05,07,09,13,28,30,,,,,,,1.2,0.9,0.7*3F",99016,2019-08-30 20:53:29:875
-0.626,-7.8088,-0.4036,-1.2183,-9.7124,0.5964,-0.3186,1.4131,0.0343,0.7786,-0.4146,-0.2119,0.0,19.61,42.22,-6.1,167.83,83.47,82.63,0.0,1015.71,67.046,50.386353,-4.147039,89.0,NaN,,3.74,9.0,62.8,8 / 18,"$GPGSV,3,3,09,21,00,000,*43::$GPGGA,195330,5023.180864,N,00408.823124,W,2,06,0.9,42.0,M,47.0,M,,*61::$GPVTG,55.5,T,55.5,M,1.9,N,3.6,K,D*2B::$GLGSV,3,3,09,84,11,246,*50::$GPRMC,195330,A,5023.180864,N,00408.823124,W,1.9,55.5,300819,4.8,W,D*24::$GPGSA,A,3,05,07,09,13,28,30,,,,,,,1.2,0.9,0.7*3F",100015,2019-08-30 20:53:30:874
-2.3674,-8.6856,1.6694,-0.6567,-9.218,-3.2813,5.2086,0.3444,3.4864,0.5228,-0.4379,-0.4314,0.0,18.46,43.64,1.69,60.28,70.05,168.68,0.0,1015.62,60.759,50.386353,-4.147022,89.0,NaN,,3.71,9.0,63.1,8 / 18,"$GPGSV,3,3,09,21,00,000,*43::$GPGGA,195331,5023.181035,N,00408.822364,W,2,06,1.0,42.0,M,47.0,M,,*62::$GPVTG,62.8,T,62.8,M,2.0,N,3.7,K,D*20::$GLGSV,3,3,09,84,11,246,*50::$GPRMC,195331,A,5023.181035,N,00408.822364,W,2.0,62.8,300819,4.8,W,D*2C::$GPGSA,A,3,05,07,09,13,28,30,,,,,,,1.3,1.0,0.8*39",101017,2019-08-30 20:53:31:876
-0.3027,-4.4787,0.6753,-0.8672,-8.9062,-4.0123,1.5157,3.4451,4.7562,0.6725,1.2044,0.1823,0.0,11.81,43.74,-7.33,28.41,65.58,165.1,0.0,1015.75,58.913,50.386356,-4.147007,89.0,NaN,,3.71,9.0,55.9,8 / 18,"$GPGSV,3,3,09,21,00,000,*43::$GPGGA,195332,5023.181029,N,00408.821303,W,2,06,1.1,42.0,M,47.0,M,,*6F::$GPVTG,63.1,T,63.1,M,2.0,N,3.7,K,D*20::$GLGSV,3,3,09,84,11,246,*50::$GPRMC,195332,A,5023.181029,N,00408.821303,W,2.0,63.1,300819,4.8,W,D*28::$GPGSA,A,3,05,07,09,13,28,30,,,,,,,1.4,1.1,0.8*3F",102015,2019-08-30 20:53:32:874
-3.4505,-9.4885,-1.4664,-1.4111,-8.9911,-3.6523,-4.8041,-3.0135,2.6381,-1.5661,1.7244,0.865,0.0,12.59,41.3,-15.48,63.56,82.24,142.99,0.0,1015.83,52.112,50.386368,-4.147012,89.0,NaN,,3.6,9.0,52.1,8 / 18,"$GPGSV,3,3,09,21,00,000,*43::$GPGGA,195333,5023.181415,N,00408.820428,W,2,06,1.1,42.0,M,47.0,M,,*6A::$GPVTG,55.9,T,55.9,M,2.0,N,3.7,K,D*20::$GLGSV,3,3,09,84,11,246,*50::$GPRMC,195333,A,5023.181415,N,00408.820428,W,2.0,55.9,300819,4.8,W,D*20::$GPGSA,A,3,05,07,09,13,28,30,,,,,,,1.4,1.1,0.8*3F",103015,2019-08-30 20:53:33:874
-2.3777,-14.5579,-2.0452,-0.0161,-9.7695,0.8525,-3.4026,-1.3076,-2.7812,-2.5456,0.4684,0.7236,0.0,13.39,41.01,-18.06,241.93,76.95,-3.41,0.0,1015.73,56.967,50.386375,-4.146993,89.0,NaN,,3.78,9.0,60.9,8 / 18,"$GPGSV,3,3,09,21,00,000,*43::$GPGGA,195334,5023.182035,N,00408.820702,W,2,06,1.1,42.0,M,47.0,M,,*63::$GPVTG,52.1,T,52.1,M,1.9,N,3.6,K,D*2B::$GLGSV,3,3,09,84,11,246,*50::$GPRMC,195334,A,5023.182035,N,00408.820702,W,1.9,52.1,300819,4.8,W,D*2C::$GPGSA,A,3,05,07,09,13,28,30,,,,,,,1.4,1.1,0.8*3F",104015,2019-08-30 20:53:34:874
-1.7753,-9.2993,0.5433,-0.8166,-9.6802,1.3406,-0.8674,0.5568,-1.1715,0.8382,-1.0187,-0.4026,0.0,18.63,42.52,-2.47,169.18,83.02,100.79,0.0,1015.78,62.488,50.386375,-4.146993,89.0,NaN,,3.78,9.0,60.9,8 / 18,"$GPGSV,3,3,09,21,00,000,*43::$GPGGA,195335,5023.182438,N,00408.819591,W,2,06,1.1,42.0,M,47.0,M,,*69::$GPVTG,60.9,T,60.9,M,2.0,N,3.8,K,D*2F::$GLGSV,3,3,09,84,11,246,*50::$GPRMC,195335,A,5023.182438,N,00408.819591,W,2.0,60.9,300819,4.8,W,D*25::$GPGSA,A,3,05,07,09,13,28,30,,,,,,,1.4,1.1,0.8*3F",105017,2019-08-30 20:53:35:876
-1.3248,-7.7721,-0.2815,-0.6389,-9.7657,-0.627,-6.6102,-3.1585,-1.8044,1.8624,-0.2859,0.4217,0.0,14.34,44.65,-1.74,111.6,84.76,134.46,0.0,1015.67,64.366,50.38638,-4.146971,88.0,NaN,,3.96,9.0,66.6,8 / 18,"$GPGSV,3,3,09,21,00,000,*43::$GPGGA,195336,5023.182465,N,00408.819450,W,2,06,1.1,41.0,M,47.0,M,,*6D::$GPVTG,69.1,T,69.1,M,2.5,N,4.6,K,D*23::$GLGSV,3,3,09,84,11,246,*50::$GPRMC,195336,A,5023.182465,N,00408.819450,W,2.5,69.1,300819,4.8,W,D*26::$GPGSA,A,3,05,07,09,13,28,30,,,,,,,1.4,1.1,0.8*3F",106015,2019-08-30 20:53:36:874
2.3823,-13.3079,1.1812,-1.2879,-9.2712,-2.9253,0.4085,1.1274,4.1349,0.0054,-0.0674,-0.3296,0.0,18.06,43.72,3.07,72.64,70.77,154.78,0.0,1015.62,57.392,50.38638,-4.146955,88.0,NaN,,4.1,9.0,65.9,8 / 18,"$GPGSV,3,3,09,21,00,000,*43::$GPGGA,195337,5023.182747,N,00408.818287,W,2,06,1.1,41.0,M,47.0,M,,*62::$GPVTG,66.6,T,66.6,M,2.1,N,4.0,K,D*21::$GLGSV,3,3,09,84,11,246,*50::$GPRMC,195337,A,5023.182747,N,00408.818287,W,2.1,66.6,300819,4.8,W,D*25::$GPGSA,A,3,05,07,09,13,28,30,,,,,,,1.4,1.1,0.8*3F",107016,2019-08-30 20:53:37:875
-0.6559,-13.9339,-13.6001,-0.884,-9.0802,-3.5971,1.2891,5.5119,4.4196,1.6905,0.5726,-0.3304,0.0,13.97,43.41,-5.03,32.52,63.75,163.8,0.0,1015.78,57.016,50.38639,-4.146939,89.0,NaN,,3.92,9.0,58.3,8 / 18,"$GPGSV,3,3,09,21,00,000,*43::$GPGGA,195338,5023.182879,N,00408.817311,W,2,06,1.5,41.0,M,47.0,M,,*6A::$GPVTG,65.9,T,65.9,M,2.2,N,4.1,K,D*23::$GLGSV,3,3,09,84,11,246,*50::$GPRMC,195338,A,5023.182879,N,00408.817311,W,2.2,65.9,300819,4.8,W,D*26::$GPGSA,A,3,05,07,09,13,28,30,,,,,,,1.7,1.5,0.9*39",108015,2019-08-30 20:53:38:874
0.4714,-7.0052,2.0091,-1.2516,-9.5133,-2.0251,-0.8609,-7.2726,6.6481,-1.3203,1.4839,1.6491,0.0,10.08,41.03,-17.22,42.73,75.95,148.28,0.0,1015.83,49.94,50.38639,-4.146939,89.0,NaN,,3.92,9.0,58.3,8 / 18,"$GPGSV,3,3,09,21,00,000,*43::$GPGGA,195339,5023.183447,N,00408.816361,W,2,06,1.1,42.0,M,47.0,M,,*6A::$GPVTG,58.3,T,58.3,M,2.1,N,3.9,K,D*2F::$GLGSV,3,3,09,84,11,246,*50::$GPRMC,195339,A,5023.183447,N,00408.816361,W,2.1,58.3,300819,4.8,W,D*26::$GPGSA,A,3,05,07,09,13,28,30,,,,,,,1.3,1.1,0.8*38",109016,2019-08-30 20:53:39:875
-4.0907,-13.3103,-4.0331,-0.1093,-9.587,2.0611,-1.5704,-0.7375,-4.3831,-0.2216,-0.4859,-0.3801,0.0,12.61,41.19,-18.59,213.75,78.62,12.48,0.0,1015.77,65.04,50.386395,-4.146929,88.0,NaN,,3.82,9.0,54.9,8 / 18,"$GPGSV,3,3,09,21,00,000,*43::$GPGGA,195340,5023.183714,N,00408.815745,W,2,06,1.1,41.0,M,47.0,M,,*63::$GPVTG,54.9,T,54.9,M,2.1,N,3.8,K,D*2E::$GLGSV,3,3,09,84,11,246,*50::$GPRMC,195340,A,5023.183714,N,00408.815745,W,2.1,54.9,300819,4.8,W,D*2A::$GPGSA,A,3,05,07,09,13,28,30,,,,,,,1.3,1.1,0.8*38",110015,2019-08-30 20:53:40:874
-1.8529,-9.1118,1.3862,-0.9229,-9.6605,1.4118,-0.894,0.3524,0.4584,1.0031,-0.4191,-0.3874,0.0,17.21,41.73,-11.09,216.72,80.1,33.17,0.0,1015.78,61.137,50.386402,-4.146923,88.0,NaN,,3.78,9.0,53.8,8 / 18,"$GPGSV,3,3,09,21,00,000,*43::$GPGGA,195341,5023.184242,N,00408.815381,W,2,06,1.0,41.0,M,47.0,M,,*6E::$GPVTG,53.8,T,53.8,M,2.0,N,3.8,K,D*2F::$GLGSV,3,3,09,84,11,246,*50::$GPRMC,195341,A,5023.184242,N,00408.815381,W,2.0,53.8,300819,4.8,W,D*21::$GPGSA,A,3,05,07,09,13,28,30,,,,,,,1.3,1.0,0.8*39",111015,2019-08-30 20:53:41:874
-2.5873,-11.2779,-1.2955,-0.6744,-9.7589,-0.6918,-2.2721,3.8227,1.9264,0.9771,-1.6096,-0.1799,0.0,17.44,43.62,-0.45,121.55,84.35,135.73,0.0,1015.73,66.456,50.38642,-4.146907,88.0,NaN,,3.53,9.0,50.0,8 / 18,"$GPGSV,3,3,09,21,00,000,*43::$GPGGA,195342,5023.184292,N,00408.814472,W,2,06,1.1,41.0,M,47.0,M,,*6B::$GPVTG,60.3,T,60.3,M,2.2,N,4.0,K,D*22::$GLGSV,3,3,09,84,11,246,*50::$GPRMC,195342,A,5023.184292,N,00408.814472,W,2.2,60.3,300819,4.8,W,D*2C::$GPGSA,A,3,05,07,09,13,28,30,,,,,,,1.3,1.1,0.8*38",112015,2019-08-30 20:53:42:874
